time_wall,time_ms,state_x,state_y,state_z,roll,pitch,yaw,u1_16,u2_16,u3_16,u4_16,setpoint_x,setpoint_y,setpoint_z,setpoint_yaw_deg,mocap_time_ms,mocap_x,mocap_y,mocap_z,mocap_qx,mocap_qy,mocap_qz,mocap_qw,mocap_mode
2026-03-06T22:57:09.807207+00:00,1772837829807.205,0.458984,-0.565918,0.315918,-0.437744,0.295654,0.295166,19131,20770,19479,19440,0.450000,-0.550000,0.300000,0.000000,1772837829800.075,0.460649,-0.567860,0.315239,0.000000,0.000000,0.000000,1.000000,position_only
2026-03-06T22:57:09.817560+00:00,1772837829817.558,0.458984,-0.565918,0.315918,-0.432617,0.318848,0.295166,19131,20770,19479,19440,0.450000,-0.550000,0.300000,0.000000,1772837829808.874,0.460747,-0.567847,0.315338,0.000000,0.000000,0.000000,1.000000,position_only
2026-03-06T22:57:09.827656+00:00,1772837829827.655,0.459229,-0.565918,0.316162,-0.446045,0.316162,0.286377,19131,20770,19479,19440,0.450000,-0.550000,0.300000,0.000000,1772837829826.156,0.460927,-0.567856,0.315479,0.000000,0.000000,0.000000,1.000000,position_only
2026-03-06T22:57:09.837168+00:00,1772837829837.167,0.459229,-0.565918,0.316162,-0.472168,0.331299,0.274902,19131,20770,19479,19440,0.450000,-0.550000,0.300000,0.000000,1772837829834.645,0.461003,-0.567825,0.315571,0.000000,0.000000,0.000000,1.000000,position_only
2026-03-06T22:57:09.847860+00:00,1772837829847.858,0.459473,-0.565918,0.316406,-0.469727,0.328613,0.266113,19131,20770,19479,19440,0.450000,-0.550000,0.300000,0.000000,1772837829843.169,0.461107,-0.567832,0.315670,0.000000,0.000000,0.000000,1.000000,position_only
2026-03-06T22:57:09.858029+00:00,1772837829858.027,0.459473,-0.565918,0.316406,-0.473877,0.357178,0.263428,19131,20770,19479,19440,0.450000,-0.550000,0.300000,0.000000,1772837829851.646,0.461184,-0.567777,0.315759,0.000000,0.000000,0.000000,1.000000,position_only
2026-03-06T22:57:09.867193+00:00,1772837829867.192,0.459717,-0.565918,0.316406,-0.462891,0.406250,0.268311,19131,20770,19479,19440,0.450000,-0.550000,0.300000,0.000000,1772837829860.225,0.461280,-0.567796,0.315852,0.000000,0.000000,0.000000,1.000000,position_only
2026-03-06T22:57:09.877348+00:00,1772837829877.347,0.459717,-0.565918,0.316650,-0.459961,0.445557,0.270508,19131,20770,19479,19440,0.450000,-0.550000,0.300000,0.000000,1772837829877.235,0.461429,-0.567770,0.316002,0.000000,0.000000,0.000000,1.000000,position_only
2026-03-06T22:57:09.887472+00:00,1772837829887.470,0.459717,-0.565918,0.316650,-0.446777,0.449219,0.277588,19131,20770,19479,19440,0.450000,-0.550000,0.300000,0.000000,1772837829885.818,0.461531,-0.567777,0.316089,0.000000,0.000000,0.000000,1.000000,position_only
2026-03-06T22:57:09.898116+00:00,1772837829898.115,0.459961,-0.565918,0.316895,-0.446533,0.442627,0.271484,19131,20770,19479,19440,0.450000,-0.550000,0.300000,0.000000,1772837829894.318,0.461630,-0.567758,0.316148,0.000000,0.000000,0.000000,1.000000,position_only
2026-03-06T22:57:09.908192+00:00,1772837829908.191,0.460205,-0.565918,0.316895,-0.456543,0.413574,0.258057,19131,20770,19479,19440,0.450000,-0.550000,0.300000,0.000000,1772837829902.824,0.461687,-0.567746,0.316246,0.000000,0.000000,0.000000,1.000000,position_only
2026-03-06T22:57:09.918062+00:00,1772837829918.061,0.460205,-0.565918,0.317139,-0.442139,0.428467,0.253174,19131,20770,19479,19440,0.450000,-0.550000,0.300000,0.000000,1772837829911.430,0.461766,-0.567731,0.316331,0.000000,0.000000,0.000000,1.000000,position_only
2026-03-06T22:57:09.928674+00:00,1772837829928.672,0.460205,-0.565918,0.317139,-0.435303,0.418701,0.243164,19131,20770,19479,19440,0.450000,-0.550000,0.300000,0.000000,1772837829919.936,0.461892,-0.567712,0.316414,0.000000,0.000000,0.000000,1.000000,position_only
2026-03-06T22:57:09.937858+00:00,1772837829937.857,0.460205,-0.565918,0.317139,-0.427246,0.410156,0.237671,19131,20770,19479,19440,0.450000,-0.550000,0.300000,0.000000,1772837829937.319,0.462029,-0.567665,0.316589,0.000000,0.000000,0.000000,1.000000,position_only
2026-03-06T22:57:09.947444+00:00,1772837829947.443,0.460449,-0.565918,0.317383,-0.424561,0.410156,0.228760,19131,20770,19479,19440,0.450000,-0.550000,0.300000,0.000000,1772837829945.816,0.462090,-0.567640,0.316689,0.000000,0.000000,0.000000,1.000000,position_only
2026-03-06T22:57:09.958167+00:00,1772837829958.166,0.460449,-0.565430,0.317383,-0.446045,0.390381,0.218262,19131,20770,19479,19440,0.450000,-0.550000,0.300000,0.000000,1772837829954.334,0.462164,-0.567611,0.316793,0.000000,0.000000,0.000000,1.000000,position_only
2026-03-06T22:57:09.968123+00:00,1772837829968.122,0.460693,-0.565918,0.317383,-0.436279,0.394531,0.215698,19131,20770,19479,19440,0.450000,-0.550000,0.300000,0.000000,1772837829962.913,0.462292,-0.567564,0.316896,0.000000,0.000000,0.000000,1.000000,position_only
2026-03-06T22:57:09.978646+00:00,1772837829978.645,0.460693,-0.565918,0.317627,-0.432373,0.357422,0.200317,19131,20770,19479,19440,0.450000,-0.550000,0.300000,0.000000,1772837829971.440,0.462308,-0.567576,0.317004,0.000000,0.000000,0.000000,1.000000,position_only
2026-03-06T22:57:09.988635+00:00,1772837829988.635,0.460693,-0.565430,0.317627,-0.421143,0.351562,0.184570,19131,20770,19479,19440,0.450000,-0.550000,0.300000,0.000000,1772837829979.995,0.462391,-0.567552,0.317081,0.000000,0.000000,0.000000,1.000000,position_only
2026-03-06T22:57:09.997895+00:00,1772837829997.894,0.460938,-0.565430,0.317627,-0.428467,0.348145,0.176514,19131,20770,19479,19440,0.450000,-0.550000,0.300000,0.000000,1772837829997.244,0.462501,-0.567514,0.317290,0.000000,0.000000,0.000000,1.000000,position_only
2026-03-06T22:57:10.008766+00:00,1772837830008.764,0.460938,-0.565430,0.317871,-0.428711,0.353027,0.170410,19131,20770,19479,19440,0.450000,-0.550000,0.300000,0.000000,1772837830005.726,0.462578,-0.567448,0.317379,0.000000,0.000000,0.000000,1.000000,position_only
2026-03-06T22:57:10.018373+00:00,1772837830018.372,0.460938,-0.565430,0.317871,-0.425293,0.367920,0.168945,19131,20770,19479,19440,0.450000,-0.550000,0.300000,0.000000,1772837830014.214,0.462591,-0.567412,0.317478,0.000000,0.000000,0.000000,1.000000,position_only
2026-03-06T22:57:10.028870+00:00,1772837830028.869,0.461182,-0.565430,0.317871,-0.419434,0.367432,0.171509,19131,20770,19479,19440,0.450000,-0.550000,0.300000,0.000000,1772837830023.094,0.462644,-0.567388,0.317576,0.000000,0.000000,0.000000,1.000000,position_only
2026-03-06T22:57:10.038605+00:00,1772837830038.604,0.461182,-0.565430,0.318115,-0.413818,0.373779,0.169800,19131,20770,19479,19440,0.450000,-0.550000,0.300000,0.000000,1772837830031.584,0.462691,-0.567330,0.317670,0.000000,0.000000,0.000000,1.000000,position_only
2026-03-06T22:57:10.048398+00:00,1772837830048.397,0.461182,-0.565430,0.318115,-0.411377,0.392334,0.162354,19131,20770,19479,19440,0.450000,-0.550000,0.300000,0.000000,1772837830040.070,0.462743,-0.567340,0.317752,0.000000,0.000000,0.000000,1.000000,position_only
2026-03-06T22:57:10.058422+00:00,1772837830058.420,0.461182,-0.565430,0.318359,-0.419189,0.384277,0.145264,19131,20770,19479,19440,0.450000,-0.550000,0.300000,0.000000,1772837830056.840,0.462811,-0.567246,0.317903,0.000000,0.000000,0.000000,1.000000,position_only
2026-03-06T22:57:10.068534+00:00,1772837830068.532,0.461182,-0.565430,0.318359,-0.428955,0.377930,0.127319,19131,20770,19479,19440,0.450000,-0.550000,0.300000,0.000000,1772837830065.588,0.462862,-0.567228,0.317998,0.000000,0.000000,0.000000,1.000000,position_only
2026-03-06T22:57:10.078294+00:00,1772837830078.292,0.461426,-0.564941,0.318359,-0.431152,0.358643,0.111816,19131,20770,19479,19440,0.450000,-0.550000,0.300000,0.000000,1772837830074.063,0.462893,-0.567176,0.318098,0.000000,0.000000,0.000000,1.000000,position_only
2026-03-06T22:57:10.088692+00:00,1772837830088.691,0.461426,-0.565430,0.318604,-0.440186,0.325439,0.102905,19131,20770,19479,19440,0.450000,-0.550000,0.300000,0.000000,1772837830082.593,0.462914,-0.567155,0.318204,0.000000,0.000000,0.000000,1.000000,position_only
2026-03-06T22:57:10.098320+00:00,1772837830098.319,0.461426,-0.564941,0.318604,-0.429199,0.306396,0.095642,19131,20770,19479,19440,0.450000,-0.550000,0.300000,0.000000,1772837830091.414,0.463030,-0.567073,0.318322,0.000000,0.000000,0.000000,1.000000,position_only
2026-03-06T22:57:10.108431+00:00,1772837830108.430,0.461426,-0.564941,0.318848,-0.423096,0.281494,0.092529,19131,20770,19479,19440,0.450000,-0.550000,0.300000,0.000000,1772837830100.079,0.463067,-0.567046,0.318411,0.000000,0.000000,0.000000,1.000000,position_only
2026-03-06T22:57:10.118605+00:00,1772837830118.605,0.461670,-0.564941,0.318848,-0.424561,0.271484,0.087524,19131,20770,19479,19440,0.450000,-0.550000,0.300000,0.000000,1772837830117.142,0.463119,-0.567005,0.318478,0.000000,0.000000,0.000000,1.000000,position_only
2026-03-06T22:57:10.128744+00:00,1772837830128.742,0.461670,-0.564941,0.319092,-0.431396,0.267090,0.074646,19131,20770,19479,19440,0.450000,-0.550000,0.300000,0.000000,1772837830125.588,0.463161,-0.566941,0.318648,0.000000,0.000000,0.000000,1.000000,position_only
2026-03-06T22:57:10.138644+00:00,1772837830138.643,0.461670,-0.564941,0.319092,-0.434326,0.293457,0.058563,19131,20770,19479,19440,0.450000,-0.550000,0.300000,0.000000,1772837830134.207,0.463195,-0.566891,0.318725,0.000000,0.000000,0.000000,1.000000,position_only
2026-03-06T22:57:10.148421+00:00,1772837830148.421,0.461670,-0.564941,0.319092,-0.423584,0.324707,0.038879,19131,20770,19479,19440,0.450000,-0.550000,0.300000,0.000000,1772837830142.699,0.463241,-0.566854,0.318806,0.000000,0.000000,0.000000,1.000000,position_only
2026-03-06T22:57:10.158599+00:00,1772837830158.598,0.461670,-0.564941,0.319336,-0.417969,0.326416,0.026550,19131,20770,19479,19440,0.450000,-0.550000,0.300000,0.000000,1772837830151.178,0.463294,-0.566835,0.318879,0.000000,0.000000,0.000000,1.000000,position_only
2026-03-06T22:57:10.168224+00:00,1772837830168.223,0.461914,-0.564941,0.319336,-0.401367,0.338623,0.014992,19131,20770,19479,19440,0.450000,-0.550000,0.300000,0.000000,1772837830159.714,0.463294,-0.566835,0.318879,0.000000,0.000000,0.000000,1.000000,position_only
2026-03-06T22:57:10.177964+00:00,1772837830177.962,0.461914,-0.564453,0.319580,-0.408447,0.326904,-0.000857,19131,20770,19479,19440,0.450000,-0.550000,0.300000,0.000000,1772837830176.796,0.463377,-0.566727,0.319124,0.000000,0.000000,0.000000,1.000000,position_only
2026-03-06T22:57:10.188621+00:00,1772837830188.620,0.461914,-0.564453,0.319580,-0.408936,0.336426,-0.024017,19131,20770,19479,19440,0.450000,-0.550000,0.300000,0.000000,1772837830185.355,0.463438,-0.566665,0.319233,0.000000,0.000000,0.000000,1.000000,position_only
2026-03-06T22:57:10.199069+00:00,1772837830199.068,0.461914,-0.564453,0.319580,-0.414795,0.303223,-0.048798,19131,20770,19479,19440,0.450000,-0.550000,0.300000,0.000000,1772837830193.819,0.463497,-0.566614,0.319307,0.000000,0.000000,0.000000,1.000000,position_only
2026-03-06T22:57:10.209134+00:00,1772837830209.132,0.461914,-0.564453,0.319824,-0.422119,0.270996,-0.069519,19131,20770,19479,19440,0.450000,-0.550000,0.300000,0.000000,1772837830202.324,0.463493,-0.566603,0.319392,0.000000,0.000000,0.000000,1.000000,position_only
2026-03-06T22:57:10.218232+00:00,1772837830218.231,0.462158,-0.564453,0.319824,-0.429932,0.255615,-0.088135,19131,20770,19479,19440,0.450000,-0.550000,0.300000,0.000000,1772837830210.844,0.463554,-0.566554,0.319467,0.000000,0.000000,0.000000,1.000000,position_only
2026-03-06T22:57:10.229722+00:00,1772837830229.721,0.462158,-0.564453,0.320068,-0.427490,0.265869,-0.103943,19131,20770,19479,19440,0.450000,-0.550000,0.300000,0.000000,1772837830228.109,0.463584,-0.566462,0.319633,0.000000,0.000000,0.000000,1.000000,position_only
2026-03-06T22:57:10.239563+00:00,1772837830239.558,0.462158,-0.564453,0.320068,-0.421143,0.266113,-0.115479,19131,20770,19479,19440,0.450000,-0.550000,0.300000,0.000000,1772837830236.689,0.463618,-0.566394,0.319701,0.000000,0.000000,0.000000,1.000000,position_only
2026-03-06T22:57:10.248143+00:00,1772837830248.141,0.462158,-0.564453,0.320068,-0.408936,0.293213,-0.124268,19131,20770,19479,19440,0.450000,-0.550000,0.300000,0.000000,1772837830245.279,0.463626,-0.566392,0.319774,0.000000,0.000000,0.000000,1.000000,position_only
2026-03-06T22:57:10.259245+00:00,1772837830259.242,0.462158,-0.563965,0.320312,-0.402588,0.322754,-0.135376,19131,20770,19479,19440,0.450000,-0.550000,0.300000,0.000000,1772837830253.844,0.463654,-0.566340,0.319825,0.000000,0.000000,0.000000,1.000000,position_only
2026-03-06T22:57:10.269138+00:00,1772837830269.136,0.462158,-0.563965,0.320312,-0.420654,0.305908,-0.162476,19131,20770,19479,19440,0.450000,-0.550000,0.300000,0.000000,1772837830262.519,0.463668,-0.566274,0.319894,0.000000,0.000000,0.000000,1.000000,position_only
2026-03-06T22:57:10.278969+00:00,1772837830278.968,0.462158,-0.563965,0.320312,-0.419678,0.296875,-0.183105,19131,20770,19479,19440,0.450000,-0.550000,0.300000,0.000000,1772837830271.396,0.463701,-0.566245,0.319952,0.000000,0.000000,0.000000,1.000000,position_only
2026-03-06T22:57:10.289120+00:00,1772837830289.117,0.462158,-0.563965,0.320557,-0.416992,0.302246,-0.205322,19131,20770,19479,19440,0.450000,-0.550000,0.300000,0.000000,1772837830288.851,0.463723,-0.566157,0.320107,0.000000,0.000000,0.000000,1.000000,position_only
2026-03-06T22:57:10.298878+00:00,1772837830298.877,0.462158,-0.563965,0.320557,-0.408936,0.327148,-0.208496,19131,20770,19479,19440,0.450000,-0.550000,0.300000,0.000000,1772837830297.379,0.463748,-0.566102,0.320145,0.000000,0.000000,0.000000,1.000000,position_only
2026-03-06T22:57:10.308580+00:00,1772837830308.579,0.462402,-0.563965,0.320557,-0.398926,0.344238,-0.223389,19131,20770,19479,19440,0.450000,-0.550000,0.300000,0.000000,1772837830305.892,0.463762,-0.566063,0.320228,0.000000,0.000000,0.000000,1.000000,position_only
2026-03-06T22:57:10.319365+00:00,1772837830319.364,0.462402,-0.563965,0.320801,-0.419434,0.354248,-0.236938,19131,20770,19479,19440,0.450000,-0.550000,0.300000,0.000000,1772837830314.750,0.463766,-0.566003,0.320307,0.000000,0.000000,0.000000,1.000000,position_only
2026-03-06T22:57:10.329097+00:00,1772837830329.097,0.462402,-0.563965,0.320801,-0.402588,0.389160,-0.251465,19131,20770,19479,19440,0.450000,-0.550000,0.300000,0.000000,1772837830323.376,0.463796,-0.565939,0.320380,0.000000,0.000000,0.000000,1.000000,position_only
2026-03-06T22:57:10.338886+00:00,1772837830338.885,0.462402,-0.563965,0.320801,-0.386719,0.385742,-0.268555,19131,20770,19479,19440,0.450000,-0.550000,0.300000,0.000000,1772837830331.821,0.463792,-0.565916,0.320448,0.000000,0.000000,0.000000,1.000000,position_only
2026-03-06T22:57:10.349437+00:00,1772837830349.437,0.462402,-0.563477,0.321045,-0.372070,0.394775,-0.284424,19131,20770,19479,19440,0.450000,-0.550000,0.300000,0.000000,1772837830349.247,0.463806,-0.565822,0.320615,0.000000,0.000000,0.000000,1.000000,position_only
2026-03-06T22:57:10.358779+00:00,1772837830358.778,0.462402,-0.563477,0.321045,-0.364746,0.414307,-0.308350,19131,20770,19479,19440,0.450000,-0.550000,0.300000,0.000000,1772837830357.941,0.463835,-0.565773,0.320696,0.000000,0.000000,0.000000,1.000000,position_only
2026-03-06T22:57:10.369386+00:00,1772837830369.386,0.462402,-0.563477,0.321045,-0.350586,0.429932,-0.330078,19131,20770,19479,19440,0.450000,-0.550000,0.300000,0.000000,1772837830366.513,0.463854,-0.565703,0.320863,0.000000,0.000000,0.000000,1.000000,position_only
2026-03-06T22:57:10.379863+00:00,1772837830379.863,0.462402,-0.563477,0.321289,-0.337158,0.446777,-0.347168,19131,20770,19479,19440,0.450000,-0.550000,0.300000,0.000000,1772837830375.043,0.463854,-0.565703,0.320863,0.000000,0.000000,0.000000,1.000000,position_only
2026-03-06T22:57:10.389613+00:00,1772837830389.612,0.462402,-0.563477,0.321289,-0.339600,0.440918,-0.373779,19131,20770,19479,19440,0.450000,-0.550000,0.300000,0.000000,1772837830383.533,0.463871,-0.565648,0.321032,0.000000,0.000000,0.000000,1.000000,position_only
2026-03-06T22:57:10.399636+00:00,1772837830399.636,0.462402,-0.563477,0.321289,-0.349609,0.416748,-0.400635,19131,20770,19479,19440,0.450000,-0.550000,0.300000,0.000000,1772837830392.053,0.463909,-0.565587,0.321081,0.000000,0.000000,0.000000,1.000000,position_only
2026-03-06T22:57:10.409452+00:00,1772837830409.451,0.462402,-0.563477,0.321533,-0.336426,0.406982,-0.413818,19131,20770,19479,19440,0.450000,-0.550000,0.300000,0.000000,1772837830409.240,0.463900,-0.565509,0.321243,0.000000,0.000000,0.000000,1.000000,position_only
2026-03-06T22:57:10.419255+00:00,1772837830419.254,0.462402,-0.562988,0.321533,-0.325195,0.415039,-0.427490,19131,20770,19479,19440,0.450000,-0.550000,0.300000,0.000000,1772837830417.712,0.463900,-0.565450,0.321329,0.000000,0.000000,0.000000,1.000000,position_only
2026-03-06T22:57:10.429167+00:00,1772837830429.166,0.462402,-0.562988,0.321777,-0.323730,0.448730,-0.441895,19131,20770,19479,19440,0.450000,-0.550000,0.300000,0.000000,1772837830426.262,0.463921,-0.565427,0.321407,0.000000,0.000000,0.000000,1.000000,position_only
2026-03-06T22:57:10.439579+00:00,1772837830439.578,0.462402,-0.562988,0.321777,-0.305908,0.441650,-0.462158,19131,20770,19479,19440,0.450000,-0.550000,0.300000,0.000000,1772837830434.875,0.463949,-0.565306,0.321518,0.000000,0.000000,0.000000,1.000000,position_only
2026-03-06T22:57:10.449305+00:00,1772837830449.305,0.462402,-0.562988,0.321777,-0.279785,0.411377,-0.474854,19131,20770,19479,19440,0.450000,-0.550000,0.300000,0.000000,1772837830443.378,0.463919,-0.565263,0.321619,0.000000,0.000000,0.000000,1.000000,position_only
2026-03-06T22:57:10.458868+00:00,1772837830458.867,0.462402,-0.562988,0.322021,-0.269043,0.406494,-0.485352,19131,20770,19479,19440,0.450000,-0.550000,0.300000,0.000000,1772837830452.188,0.463921,-0.565231,0.321664,0.000000,0.000000,0.000000,1.000000,position_only
2026-03-06T22:57:10.469384+00:00,1772837830469.383,0.462402,-0.562988,0.322021,-0.262939,0.414062,-0.496582,19131,20770,19479,19440,0.450000,-0.550000,0.300000,0.000000,1772837830469.272,0.463920,-0.565145,0.321829,0.000000,0.000000,0.000000,1.000000,position_only
2026-03-06T22:57:10.479146+00:00,1772837830479.145,0.462402,-0.562988,0.322266,-0.265625,0.434570,-0.505859,19131,20770,19479,19440,0.450000,-0.550000,0.300000,0.000000,1772837830477.825,0.463898,-0.565071,0.321905,0.000000,0.000000,0.000000,1.000000,position_only
2026-03-06T22:57:10.489037+00:00,1772837830489.036,0.462402,-0.562500,0.322266,-0.277832,0.428467,-0.520508,19131,20770,19479,19440,0.450000,-0.550000,0.300000,0.000000,1772837830486.371,0.463927,-0.565050,0.321983,0.000000,0.000000,0.000000,1.000000,position_only
2026-03-06T22:57:10.498899+00:00,1772837830498.899,0.462158,-0.562500,0.322266,-0.265137,0.417480,-0.534180,19131,20770,19479,19440,0.450000,-0.550000,0.300000,0.000000,1772837830494.889,0.463955,-0.565018,0.322040,0.000000,0.000000,0.000000,1.000000,position_only
2026-03-06T22:57:10.508642+00:00,1772837830508.642,0.462402,-0.562988,0.322510,-0.262451,0.384521,-0.540039,19131,20770,19479,19440,0.450000,-0.550000,0.300000,0.000000,1772837830503.392,0.463922,-0.564976,0.322134,0.000000,0.000000,0.000000,1.000000,position_only
2026-03-06T22:57:10.519869+00:00,1772837830519.868,0.462402,-0.562500,0.322510,-0.259521,0.375977,-0.549316,19131,20770,19479,19440,0.450000,-0.550000,0.300000,0.000000,1772837830511.901,0.463926,-0.564909,0.322194,0.000000,0.000000,0.000000,1.000000,position_only
2026-03-06T22:57:10.528892+00:00,1772837830528.892,0.462158,-0.562500,0.322754,-0.265625,0.366455,-0.562988,19131,20770,19479,19440,0.450000,-0.550000,0.300000,0.000000,1772837830520.645,0.463885,-0.564889,0.322273,0.000000,0.000000,0.000000,1.000000,position_only
2026-03-06T22:57:10.539427+00:00,1772837830539.427,0.462158,-0.562500,0.322754,-0.266113,0.377686,-0.577148,19131,20770,19479,19440,0.450000,-0.550000,0.300000,0.000000,1772837830537.705,0.463838,-0.564770,0.322411,0.000000,0.000000,0.000000,1.000000,position_only
2026-03-06T22:57:10.549243+00:00,1772837830549.242,0.462158,-0.562500,0.322754,-0.253174,0.408447,-0.585938,19131,20770,19479,19440,0.450000,-0.550000,0.300000,0.000000,1772837830546.217,0.463831,-0.564754,0.322462,0.000000,0.000000,0.000000,1.000000,position_only
2026-03-06T22:57:10.559255+00:00,1772837830559.254,0.462158,-0.562500,0.322998,-0.255859,0.383545,-0.601074,19131,20770,19479,19440,0.450000,-0.550000,0.300000,0.000000,1772837830554.730,0.463817,-0.564715,0.322513,0.000000,0.000000,0.000000,1.000000,position_only
2026-03-06T22:57:10.569039+00:00,1772837830569.039,0.462158,-0.562500,0.322998,-0.268799,0.381104,-0.615234,19131,20770,19479,19440,0.450000,-0.550000,0.300000,0.000000,1772837830563.452,0.463801,-0.564671,0.322587,0.000000,0.000000,0.000000,1.000000,position_only
2026-03-06T22:57:10.579874+00:00,1772837830579.874,0.462158,-0.562500,0.322998,-0.252441,0.375000,-0.627441,19131,20770,19479,19440,0.450000,-0.550000,0.300000,0.000000,1772837830572.001,0.463831,-0.564623,0.322619,0.000000,0.000000,0.000000,1.000000,position_only
2026-03-06T22:57:10.588878+00:00,1772837830588.878,0.462158,-0.562500,0.323242,-0.258789,0.366943,-0.648926,19131,20770,19479,19440,0.450000,-0.550000,0.300000,0.000000,1772837830580.565,0.463760,-0.564597,0.322695,0.000000,0.000000,0.000000,1.000000,position_only
2026-03-06T22:57:10.599394+00:00,1772837830599.394,0.462158,-0.562500,0.323242,-0.255127,0.362793,-0.645996,19131,20770,19479,19440,0.450000,-0.550000,0.300000,0.000000,1772837830597.588,0.463725,-0.564498,0.322784,0.000000,0.000000,0.000000,1.000000,position_only
2026-03-06T22:57:10.609243+00:00,1772837830609.242,0.461914,-0.562012,0.323242,-0.257324,0.334961,-0.655273,19131,20770,19479,19440,0.450000,-0.550000,0.300000,0.000000,1772837830606.118,0.463715,-0.564483,0.322822,0.000000,0.000000,0.000000,1.000000,position_only
2026-03-06T22:57:10.619865+00:00,1772837830619.864,0.461914,-0.562012,0.323242,-0.249268,0.325439,-0.663574,19131,20770,19479,19440,0.450000,-0.550000,0.300000,0.000000,1772837830614.644,0.463687,-0.564447,0.322861,0.000000,0.000000,0.000000,1.000000,position_only
2026-03-06T22:57:10.629648+00:00,1772837830629.647,0.461914,-0.562500,0.323242,-0.230225,0.345703,-0.663574,19131,20770,19479,19440,0.450000,-0.550000,0.300000,0.000000,1772837830623.146,0.463674,-0.564409,0.322902,0.000000,0.000000,0.000000,1.000000,position_only
2026-03-06T22:57:10.639443+00:00,1772837830639.441,0.461914,-0.562012,0.323242,-0.190918,0.398926,-0.663574,19131,20770,19479,19440,0.450000,-0.550000,0.300000,0.000000,1772837830631.649,0.463656,-0.564392,0.322910,0.000000,0.000000,0.000000,1.000000,position_only
2026-03-06T22:57:10.649332+00:00,1772837830649.331,0.461914,-0.562012,0.323486,-0.181274,0.423340,-0.656250,19131,20770,19479,19440,0.450000,-0.550000,0.300000,0.000000,1772837830648.980,0.463598,-0.564308,0.322979,0.000000,0.000000,0.000000,1.000000,position_only
2026-03-06T22:57:10.658754+00:00,1772837830658.753,0.461914,-0.562012,0.323486,-0.181885,0.436035,-0.653320,19131,20770,19479,19440,0.450000,-0.550000,0.300000,0.000000,1772837830657.488,0.463523,-0.564276,0.323025,0.000000,0.000000,0.000000,1.000000,position_only
2026-03-06T22:57:10.670201+00:00,1772837830670.200,0.461670,-0.562012,0.323486,-0.211304,0.441895,-0.663574,19131,20770,19479,19440,0.450000,-0.550000,0.300000,0.000000,1772837830666.015,0.463527,-0.564246,0.323035,0.000000,0.000000,0.000000,1.000000,position_only
2026-03-06T22:57:10.679224+00:00,1772837830679.224,0.461914,-0.562012,0.323486,-0.227051,0.411621,-0.675781,19131,20770,19479,19440,0.450000,-0.550000,0.300000,0.000000,1772837830674.531,0.463509,-0.564212,0.323057,0.000000,0.000000,0.000000,1.000000,position_only
2026-03-06T22:57:10.689681+00:00,1772837830689.681,0.461670,-0.562012,0.323486,-0.244873,0.392334,-0.674805,19131,20770,19479,19440,0.450000,-0.550000,0.300000,0.000000,1772837830683.247,0.463461,-0.564116,0.323123,0.000000,0.000000,0.000000,1.000000,position_only
2026-03-06T22:57:10.699316+00:00,1772837830699.315,0.461670,-0.562012,0.323486,-0.256836,0.393066,-0.673828,19131,20770,19479,19440,0.450000,-0.550000,0.300000,0.000000,1772837830691.834,0.463443,-0.564106,0.323154,0.000000,0.000000,0.000000,1.000000,position_only
2026-03-06T22:57:10.709307+00:00,1772837830709.306,0.461670,-0.562012,0.323486,-0.256348,0.351074,-0.679199,19131,20770,19479,19440,0.450000,-0.550000,0.300000,0.000000,1772837830708.892,0.463361,-0.564036,0.323232,0.000000,0.000000,0.000000,1.000000,position_only
2026-03-06T22:57:10.719144+00:00,1772837830719.144,0.461670,-0.562012,0.323486,-0.231201,0.363525,-0.660156,19131,20770,19479,19440,0.450000,-0.550000,0.300000,0.000000,1772837830717.672,0.463343,-0.564018,0.323236,0.000000,0.000000,0.000000,1.000000,position_only
2026-03-06T22:57:10.730366+00:00,1772837830730.365,0.461426,-0.562012,0.323730,-0.223022,0.361084,-0.645508,19131,20770,19479,19440,0.450000,-0.550000,0.300000,0.000000,1772837830726.198,0.463325,-0.563987,0.323256,0.000000,0.000000,0.000000,1.000000,position_only
2026-03-06T22:57:10.740124+00:00,1772837830740.124,0.461426,-0.562012,0.323730,-0.234253,0.336426,-0.636230,19131,20770,19479,19440,0.450000,-0.550000,0.300000,0.000000,1772837830734.719,0.463301,-0.563950,0.323302,0.000000,0.000000,0.000000,1.000000,position_only
2026-03-06T22:57:10.750116+00:00,1772837830750.115,0.461426,-0.562012,0.323730,-0.250000,0.319824,-0.633301,19131,20770,19479,19440,0.450000,-0.550000,0.300000,0.000000,1772837830743.334,0.463278,-0.563903,0.323326,0.000000,0.000000,0.000000,1.000000,position_only
2026-03-06T22:57:10.760075+00:00,1772837830760.075,0.461426,-0.562012,0.323730,-0.261475,0.310547,-0.623535,19131,20770,19479,19440,0.450000,-0.550000,0.300000,0.000000,1772837830751.823,0.463249,-0.563884,0.323370,0.000000,0.000000,0.000000,1.000000,position_only
2026-03-06T22:57:10.770042+00:00,1772837830770.041,0.461426,-0.562012,0.323730,-0.273682,0.304688,-0.610352,19131,20770,19479,19440,0.450000,-0.550000,0.300000,0.000000,1772837830768.826,0.463203,-0.563829,0.323421,0.000000,0.000000,0.000000,1.000000,position_only
2026-03-06T22:57:10.780415+00:00,1772837830780.415,0.461182,-0.562012,0.323730,-0.288086,0.300049,-0.604980,19131,20770,19479,19440,0.450000,-0.550000,0.300000,0.000000,1772837830777.321,0.463190,-0.563787,0.323441,0.000000,0.000000,0.000000,1.000000,position_only
2026-03-06T22:57:10.790293+00:00,1772837830790.293,0.461182,-0.561523,0.323730,-0.277832,0.280273,-0.592773,19131,20770,19479,19440,0.450000,-0.550000,0.300000,0.000000,1772837830785.825,0.463143,-0.563731,0.323475,0.000000,0.000000,0.000000,1.000000,position_only
2026-03-06T22:57:10.800138+00:00,1772837830800.137,0.461182,-0.562012,0.323730,-0.263916,0.248657,-0.577148,19131,20770,19479,19440,0.450000,-0.550000,0.300000,0.000000,1772837830794.363,0.463133,-0.563692,0.323512,0.000000,0.000000,0.000000,1.000000,position_only
2026-03-06T22:57:10.809883+00:00,1772837830809.882,0.461182,-0.562012,0.323975,-0.244507,0.283691,-0.559082,19131,20770,19479,19440,0.450000,-0.550000,0.300000,0.000000,1772837830802.910,0.463123,-0.563638,0.323542,0.000000,0.000000,0.000000,1.000000,position_only
2026-03-06T22:57:10.820542+00:00,1772837830820.541,0.461182,-0.561523,0.323975,-0.253174,0.288086,-0.546387,19131,20770,19479,19440,0.450000,-0.550000,0.300000,0.000000,1772837830819.984,0.463070,-0.563564,0.323587,0.000000,0.000000,0.000000,1.000000,position_only
2026-03-06T22:57:10.829676+00:00,1772837830829.675,0.461182,-0.561523,0.323975,-0.268066,0.232056,-0.548340,19131,20770,19479,19440,0.450000,-0.550000,0.300000,0.000000,1772837830828.493,0.463049,-0.563537,0.323611,0.000000,0.000000,0.000000,1.000000,position_only
2026-03-06T22:57:10.839633+00:00,1772837830839.632,0.460938,-0.561523,0.323975,-0.264893,0.219971,-0.542480,19131,20770,19479,19440,0.450000,-0.550000,0.300000,0.000000,1772837830837.021,0.463030,-0.563511,0.323640,0.000000,0.000000,0.000000,1.000000,position_only
2026-03-06T22:57:10.851085+00:00,1772837830851.084,0.460938,-0.561523,0.323975,-0.251221,0.203003,-0.521484,19131,20770,19479,19440,0.450000,-0.550000,0.300000,0.000000,1772837830845.727,0.463020,-0.563448,0.323672,0.000000,0.000000,0.000000,1.000000,position_only
2026-03-06T22:57:10.860622+00:00,1772837830860.622,0.461182,-0.561523,0.323975,-0.248779,0.171875,-0.504395,19131,20770,19479,19440,0.450000,-0.550000,0.300000,0.000000,1772837830854.338,0.463013,-0.563429,0.323704,0.000000,0.000000,0.000000,1.000000,position_only
2026-03-06T22:57:10.869885+00:00,1772837830869.884,0.460938,-0.561523,0.323975,-0.258789,0.147461,-0.490723,19131,20770,19479,19440,0.450000,-0.550000,0.300000,0.000000,1772837830862.922,0.463006,-0.563361,0.323730,0.000000,0.000000,0.000000,1.000000,position_only
2026-03-06T22:57:10.880339+00:00,1772837830880.338,0.460938,-0.561523,0.323975,-0.278564,0.152100,-0.472900,19131,20770,19479,19440,0.450000,-0.550000,0.300000,0.000000,1772837830880.144,0.462962,-0.563267,0.323782,0.000000,0.000000,0.000000,1.000000,position_only
2026-03-06T22:57:10.890306+00:00,1772837830890.305,0.460938,-0.561523,0.324219,-0.303711,0.179443,-0.457520,19131,20770,19479,19440,0.450000,-0.550000,0.300000,0.000000,1772837830888.657,0.462954,-0.563211,0.323807,0.000000,0.000000,0.000000,1.000000,position_only
2026-03-06T22:57:10.900070+00:00,1772837830900.070,0.460938,-0.561523,0.324219,-0.306641,0.205078,-0.447754,19131,20770,19479,19440,0.450000,-0.550000,0.300000,0.000000,1772837830897.230,0.462924,-0.563169,0.323853,0.000000,0.000000,0.000000,1.000000,position_only
2026-03-06T22:57:10.910636+00:00,1772837830910.636,0.460938,-0.561523,0.324219,-0.314453,0.180298,-0.442871,19131,20770,19479,19440,0.450000,-0.550000,0.300000,0.000000,1772837830906.022,0.462933,-0.563114,0.323861,0.000000,0.000000,0.000000,1.000000,position_only
2026-03-06T22:57:10.920404+00:00,1772837830920.404,0.460938,-0.561523,0.324219,-0.304443,0.146362,-0.442871,19131,20770,19479,19440,0.450000,-0.550000,0.300000,0.000000,1772837830914.530,0.462919,-0.563085,0.323900,0.000000,0.000000,0.000000,1.000000,position_only
2026-03-06T22:57:10.930149+00:00,1772837830930.149,0.460938,-0.561523,0.324219,-0.307617,0.102234,-0.441895,19131,20770,19479,19440,0.450000,-0.550000,0.300000,0.000000,1772837830923.050,0.462918,-0.563027,0.323916,0.000000,0.000000,0.000000,1.000000,position_only
2026-03-06T22:57:10.940751+00:00,1772837830940.750,0.460938,-0.561523,0.324219,-0.287109,0.090515,-0.418945,19131,20770,19479,19440,0.450000,-0.550000,0.300000,0.000000,1772837830940.080,0.462894,-0.562929,0.323980,0.000000,0.000000,0.000000,1.000000,position_only
2026-03-06T22:57:10.950125+00:00,1772837830950.124,0.460938,-0.561035,0.324219,-0.276855,0.096802,-0.402588,19953,19699,20313,18538,0.450000,-0.550000,0.300000,0.000000,1772837830948.769,0.462926,-0.562884,0.323981,0.000000,0.000000,0.000000,1.000000,position_only
2026-03-06T22:57:10.960106+00:00,1772837830960.105,0.460938,-0.561035,0.324219,-0.286133,0.133911,-0.387451,19447,19588,20172,18230,0.450000,-0.550000,0.300000,0.000000,1772837830957.380,0.462902,-0.562817,0.324030,0.000000,0.000000,0.000000,1.000000,position_only
2026-03-06T22:57:10.970568+00:00,1772837830970.567,0.460938,-0.561035,0.324463,-0.293213,0.172241,-0.375488,18928,19694,19586,18317,0.450000,-0.550000,0.300000,0.000000,1772837830965.984,0.462898,-0.562730,0.324042,0.000000,0.000000,0.000000,1.000000,position_only
2026-03-06T22:57:10.980248+00:00,1772837830980.248,0.460938,-0.561035,0.324463,-0.303467,0.167603,-0.364502,19072,19051,19691,17976,0.450000,-0.550000,0.300000,0.000000,1772837830974.728,0.462880,-0.562615,0.324098,0.000000,0.000000,0.000000,1.000000,position_only
2026-03-06T22:57:10.990199+00:00,1772837830990.198,0.460938,-0.561035,0.324463,-0.311035,0.191650,-0.351562,19197,18700,19877,17394,0.450000,-0.550000,0.300000,0.000000,1772837830983.280,0.462906,-0.562553,0.324111,0.000000,0.000000,0.000000,1.000000,position_only
2026-03-06T22:57:11.000575+00:00,1772837831000.574,0.460938,-0.561035,0.324463,-0.296631,0.214111,-0.334229,19049,18608,19530,17466,0.450000,-0.550000,0.300000,0.000000,1772837831000.272,0.462901,-0.562429,0.324132,0.000000,0.000000,0.000000,1.000000,position_only
2026-03-06T22:57:11.010025+00:00,1772837831010.024,0.460938,-0.561035,0.324463,-0.290771,0.185791,-0.314941,19311,18028,19644,17247,0.450000,-0.550000,0.300000,0.000000,1772837831008.766,0.462902,-0.562387,0.324152,0.000000,0.000000,0.000000,1.000000,position_only
2026-03-06T22:57:11.021421+00:00,1772837831021.420,0.461182,-0.561035,0.324463,-0.300537,0.131836,-0.294189,19036,18025,19373,17403,0.450000,-0.550000,0.300000,0.000000,1772837831017.296,0.462866,-0.562304,0.324200,0.000000,0.000000,0.000000,1.000000,position_only
2026-03-06T22:57:11.031186+00:00,1772837831031.185,0.460938,-0.561035,0.324463,-0.304199,0.108032,-0.280273,18468,18502,19056,17597,0.450000,-0.550000,0.300000,0.000000,1772837831025.934,0.462933,-0.562247,0.324171,0.000000,0.000000,0.000000,1.000000,position_only
2026-03-06T22:57:11.040984+00:00,1772837831040.983,0.461182,-0.561035,0.324463,-0.321289,0.122559,-0.261475,19354,17473,19922,16644,0.450000,-0.550000,0.300000,0.000000,1772837831034.531,0.462924,-0.562217,0.324181,0.000000,0.000000,0.000000,1.000000,position_only
2026-03-06T22:57:11.051156+00:00,1772837831051.155,0.461182,-0.560547,0.324463,-0.323242,0.130127,-0.232788,19001,17690,19528,16989,0.450000,-0.550000,0.300000,0.000000,1772837831043.058,0.462929,-0.562130,0.324187,0.000000,0.000000,0.000000,1.000000,position_only
2026-03-06T22:57:11.059880+00:00,1772837831059.879,0.461182,-0.560547,0.324463,-0.306396,0.151367,-0.208130,18824,17720,19373,17145,0.450000,-0.550000,0.300000,0.000000,1772837831051.595,0.462896,-0.562045,0.324214,0.000000,0.000000,0.000000,1.000000,position_only
2026-03-06T22:57:11.070477+00:00,1772837831070.477,0.461182,-0.560547,0.324463,-0.328369,0.148438,-0.190063,18782,17626,19370,17174,0.450000,-0.550000,0.300000,0.000000,1772837831068.802,0.462950,-0.561986,0.324209,0.000000,0.000000,0.000000,1.000000,position_only
2026-03-06T22:57:11.080186+00:00,1772837831080.185,0.461182,-0.560547,0.324463,-0.346191,0.157104,-0.166992,18948,17483,19522,16925,0.450000,-0.550000,0.300000,0.000000,1772837831077.305,0.462959,-0.561872,0.324218,0.000000,0.000000,0.000000,1.000000,position_only
2026-03-06T22:57:11.090872+00:00,1772837831090.871,0.461182,-0.560547,0.324463,-0.362549,0.167480,-0.157227,18426,17879,19049,17443,0.450000,-0.550000,0.300000,0.000000,1772837831085.830,0.462958,-0.561799,0.324197,0.000000,0.000000,0.000000,1.000000,position_only
2026-03-06T22:57:11.100934+00:00,1772837831100.933,0.461182,-0.560547,0.324463,-0.359131,0.184570,-0.142578,18448,17899,19009,17374,0.450000,-0.550000,0.300000,0.000000,1772837831094.639,0.462957,-0.561736,0.324204,0.000000,0.000000,0.000000,1.000000,position_only
2026-03-06T22:57:11.109926+00:00,1772837831109.925,0.461182,-0.560059,0.324463,-0.346924,0.222534,-0.127930,18311,17982,18833,17541,0.450000,-0.550000,0.300000,0.000000,1772837831103.189,0.462981,-0.561675,0.324200,0.000000,0.000000,0.000000,1.000000,position_only
2026-03-06T22:57:11.120505+00:00,1772837831120.504,0.461182,-0.560059,0.324463,-0.319336,0.254150,-0.111572,18583,17766,19054,17214,0.450000,-0.550000,0.300000,0.000000,1772837831120.246,0.462974,-0.561552,0.324217,0.000000,0.000000,0.000000,1.000000,position_only
2026-03-06T22:57:11.130228+00:00,1772837831130.227,0.461426,-0.560059,0.324463,-0.317627,0.249878,-0.095886,18261,17870,18690,17747,0.450000,-0.550000,0.300000,0.000000,1772837831128.911,0.463001,-0.561467,0.324202,0.000000,0.000000,0.000000,1.000000,position_only
2026-03-06T22:57:11.140792+00:00,1772837831140.792,0.461426,-0.560059,0.324463,-0.309814,0.254883,-0.086121,18763,17494,19223,17057,0.450000,-0.550000,0.300000,0.000000,1772837831137.463,0.463001,-0.561407,0.324210,0.000000,0.000000,0.000000,1.000000,position_only
2026-03-06T22:57:11.150217+00:00,1772837831150.215,0.461426,-0.560059,0.324463,-0.292725,0.264404,-0.067139,18344,17799,18675,17694,0.450000,-0.550000,0.300000,0.000000,1772837831145.948,0.463016,-0.561345,0.324216,0.000000,0.000000,0.000000,1.000000,position_only
2026-03-06T22:57:11.160867+00:00,1772837831160.866,0.461426,-0.560059,0.324463,-0.268799,0.272217,-0.058411,18564,17667,19083,17173,0.450000,-0.550000,0.300000,0.000000,1772837831154.598,0.463045,-0.561261,0.324218,0.000000,0.000000,0.000000,1.000000,position_only
2026-03-06T22:57:11.171054+00:00,1772837831171.053,0.461426,-0.559570,0.324463,-0.250244,0.308105,-0.038696,18743,17324,19230,17185,0.450000,-0.550000,0.300000,0.000000,1772837831163.136,0.463010,-0.561224,0.324230,0.000000,0.000000,0.000000,1.000000,position_only
2026-03-06T22:57:11.179905+00:00,1772837831179.904,0.461426,-0.559570,0.324463,-0.240356,0.288574,-0.013641,18614,17407,18846,17609,0.450000,-0.550000,0.300000,0.000000,1772837831171.743,0.463047,-0.561143,0.324205,0.000000,0.000000,0.000000,1.000000,position_only
2026-03-06T22:57:11.190261+00:00,1772837831190.260,0.461426,-0.559570,0.324463,-0.264160,0.264893,-0.004795,18017,17918,18479,18060,0.450000,-0.550000,0.300000,0.000000,1772837831188.899,0.463064,-0.560942,0.324251,0.000000,0.000000,0.000000,1.000000,position_only
2026-03-06T22:57:11.200909+00:00,1772837831200.909,0.461426,-0.559570,0.324463,-0.303467,0.266846,0.004749,18186,17621,18977,17683,0.450000,-0.550000,0.300000,0.000000,1772837831197.435,0.463089,-0.560856,0.324238,0.000000,0.000000,0.000000,1.000000,position_only
2026-03-06T22:57:11.210773+00:00,1772837831210.773,0.461670,-0.559570,0.324463,-0.324463,0.281250,0.022949,18238,17691,18690,17830,0.450000,-0.550000,0.300000,0.000000,1772837831206.014,0.463085,-0.560784,0.324240,0.000000,0.000000,0.000000,1.000000,position_only
2026-03-06T22:57:11.219987+00:00,1772837831219.985,0.461670,-0.559570,0.324463,-0.310303,0.270264,0.036926,18407,17696,18801,17531,0.450000,-0.550000,0.300000,0.000000,1772837831214.517,0.463087,-0.560696,0.324259,0.000000,0.000000,0.000000,1.000000,position_only
2026-03-06T22:57:11.230751+00:00,1772837831230.749,0.461670,-0.559082,0.324463,-0.300781,0.288818,0.046722,18045,17958,18519,17891,0.450000,-0.550000,0.300000,0.000000,1772837831223.025,0.463108,-0.560588,0.324276,0.000000,0.000000,0.000000,1.000000,position_only
2026-03-06T22:57:11.240883+00:00,1772837831240.882,0.461670,-0.559082,0.324463,-0.291016,0.306396,0.053864,18444,17574,18878,17518,0.450000,-0.550000,0.300000,0.000000,1772837831240.160,0.463096,-0.560450,0.324274,0.000000,0.000000,0.000000,1.000000,position_only
2026-03-06T22:57:11.250304+00:00,1772837831250.303,0.461670,-0.559082,0.324463,-0.276855,0.322266,0.068726,18082,17940,18520,17868,0.450000,-0.550000,0.300000,0.000000,1772837831249.042,0.463086,-0.560354,0.324285,0.000000,0.000000,0.000000,1.000000,position_only
2026-03-06T22:57:11.261053+00:00,1772837831261.052,0.461670,-0.559082,0.324463,-0.263428,0.341064,0.069702,17778,18240,18302,18086,0.450000,-0.550000,0.300000,0.000000,1772837831257.652,0.463089,-0.560293,0.324294,0.000000,0.000000,0.000000,1.000000,position_only
2026-03-06T22:57:11.271501+00:00,1772837831271.500,0.461670,-0.558594,0.324463,-0.260986,0.352051,0.072937,18039,17882,18565,17929,0.450000,-0.550000,0.300000,0.000000,1772837831266.491,0.463094,-0.560131,0.324311,0.000000,0.000000,0.000000,1.000000,position_only
2026-03-06T22:57:11.280470+00:00,1772837831280.469,0.461670,-0.558594,0.324463,-0.268555,0.329590,0.077698,18453,17534,18824,17598,0.450000,-0.550000,0.300000,0.000000,1772837831275.014,0.463094,-0.560026,0.324301,0.000000,0.000000,0.000000,1.000000,position_only
2026-03-06T22:57:11.290860+00:00,1772837831290.860,0.461670,-0.558594,0.324463,-0.258545,0.305664,0.086304,18213,17704,18420,18053,0.450000,-0.550000,0.300000,0.000000,1772837831283.507,0.463094,-0.560026,0.324301,0.000000,0.000000,0.000000,1.000000,position_only
2026-03-06T22:57:11.300891+00:00,1772837831300.890,0.461670,-0.558594,0.324463,-0.256104,0.277100,0.093994,18378,17579,18819,17599,0.450000,-0.550000,0.300000,0.000000,1772837831300.672,0.463095,-0.559746,0.324338,0.000000,0.000000,0.000000,1.000000,position_only
2026-03-06T22:57:11.311398+00:00,1772837831311.397,0.461670,-0.558594,0.324707,-0.258057,0.285156,0.096924,17728,18223,18312,18101,0.450000,-0.550000,0.300000,0.000000,1772837831309.288,0.463041,-0.559670,0.324358,0.000000,0.000000,0.000000,1.000000,position_only
2026-03-06T22:57:11.321265+00:00,1772837831321.265,0.461670,-0.558105,0.324707,-0.234863,0.311768,0.099304,17912,18127,18445,17860,0.450000,-0.550000,0.300000,0.000000,1772837831317.957,0.463046,-0.559613,0.324364,0.000000,0.000000,0.000000,1.000000,position_only
2026-03-06T22:57:11.331764+00:00,1772837831331.763,0.461670,-0.558105,0.324707,-0.196777,0.367676,0.109619,18031,18019,18554,17713,0.450000,-0.550000,0.300000,0.000000,1772837831326.530,0.463024,-0.559509,0.324369,0.000000,0.000000,0.000000,1.000000,position_only
2026-03-06T22:57:11.340699+00:00,1772837831340.699,0.461670,-0.558105,0.324707,-0.179932,0.375488,0.115845,17930,17974,18238,18154,0.450000,-0.550000,0.300000,0.000000,1772837831335.239,0.463014,-0.559435,0.324400,0.000000,0.000000,0.000000,1.000000,position_only
2026-03-06T22:57:11.350965+00:00,1772837831350.965,0.461670,-0.558105,0.324707,-0.154175,0.362549,0.119690,18006,18088,18303,17885,0.450000,-0.550000,0.300000,0.000000,1772837831343.979,0.462991,-0.559323,0.324439,0.000000,0.000000,0.000000,1.000000,position_only
2026-03-06T22:57:11.360395+00:00,1772837831360.394,0.461670,-0.558105,0.324707,-0.134888,0.350098,0.124878,18292,17716,18637,17621,0.450000,-0.550000,0.300000,0.000000,1772837831352.480,0.462953,-0.559267,0.324464,0.000000,0.000000,0.000000,1.000000,position_only
2026-03-06T22:57:11.371031+00:00,1772837831371.030,0.461670,-0.557617,0.324707,-0.131836,0.333252,0.132935,18002,17816,18449,18012,0.450000,-0.550000,0.300000,0.000000,1772837831369.532,0.462961,-0.559025,0.324533,0.000000,0.000000,0.000000,1.000000,position_only
2026-03-06T22:57:11.380906+00:00,1772837831380.905,0.461670,-0.557617,0.324707,-0.148438,0.315186,0.130371,17726,18046,18203,18279,0.450000,-0.550000,0.300000,0.000000,1772837831378.046,0.462910,-0.558932,0.324579,0.000000,0.000000,0.000000,1.000000,position_only
2026-03-06T22:57:11.390244+00:00,1772837831390.242,0.461670,-0.557617,0.324707,-0.177002,0.312744,0.137207,18360,17476,19007,17391,0.450000,-0.550000,0.300000,0.000000,1772837831386.586,0.462914,-0.558853,0.324579,0.000000,0.000000,0.000000,1.000000,position_only
2026-03-06T22:57:11.401196+00:00,1772837831401.195,0.461670,-0.557617,0.324707,-0.183838,0.318115,0.147827,18126,17766,18605,17718,0.450000,-0.550000,0.300000,0.000000,1772837831395.100,0.462900,-0.558796,0.324589,0.000000,0.000000,0.000000,1.000000,position_only
2026-03-06T22:57:11.410161+00:00,1772837831410.161,0.461426,-0.557617,0.324951,-0.167847,0.323730,0.153442,17965,17986,18363,17885,0.450000,-0.550000,0.300000,0.000000,1772837831403.646,0.462870,-0.558712,0.324629,0.000000,0.000000,0.000000,1.000000,position_only
2026-03-06T22:57:11.421143+00:00,1772837831421.143,0.461426,-0.557129,0.324951,-0.145508,0.328857,0.152588,18167,17831,18472,17711,0.450000,-0.550000,0.300000,0.000000,1772837831421.062,0.462843,-0.558612,0.324659,0.000000,0.000000,0.000000,1.000000,position_only
2026-03-06T22:57:11.431273+00:00,1772837831431.272,0.461426,-0.557129,0.324951,-0.118591,0.327637,0.155396,18010,17993,18232,17918,0.450000,-0.550000,0.300000,0.000000,1772837831429.531,0.462838,-0.558507,0.324693,0.000000,0.000000,0.000000,1.000000,position_only
2026-03-06T22:57:11.441057+00:00,1772837831441.056,0.461426,-0.557129,0.324951,-0.091614,0.302002,0.154297,18028,17934,18273,17896,0.450000,-0.550000,0.300000,0.000000,1772837831438.098,0.462813,-0.558456,0.324721,0.000000,0.000000,0.000000,1.000000,position_only
2026-03-06T22:57:11.451722+00:00,1772837831451.721,0.461426,-0.557129,0.324951,-0.070435,0.295654,0.158325,18337,17607,18571,17596,0.450000,-0.550000,0.300000,0.000000,1772837831446.794,0.462791,-0.558421,0.324744,0.000000,0.000000,0.000000,1.000000,position_only
2026-03-06T22:57:11.461041+00:00,1772837831461.039,0.461426,-0.557129,0.324951,-0.070374,0.255371,0.158081,17909,17920,18207,18064,0.450000,-0.550000,0.300000,0.000000,1772837831455.358,0.462824,-0.558334,0.324767,0.000000,0.000000,0.000000,1.000000,position_only
2026-03-06T22:57:11.471342+00:00,1772837831471.340,0.461426,-0.556641,0.324951,-0.079956,0.240967,0.164917,18152,17624,18660,17659,0.450000,-0.550000,0.300000,0.000000,1772837831463.882,0.462754,-0.558286,0.324806,0.000000,0.000000,0.000000,1.000000,position_only
2026-03-06T22:57:11.481186+00:00,1772837831481.185,0.461426,-0.556641,0.325195,-0.083252,0.284180,0.168091,17631,18050,18346,18058,0.450000,-0.550000,0.300000,0.000000,1772837831480.975,0.462687,-0.558129,0.324848,0.000000,0.000000,0.000000,1.000000,position_only
2026-03-06T22:57:11.491163+00:00,1772837831491.162,0.461182,-0.556641,0.325195,-0.107666,0.301758,0.185059,18355,17371,18952,17393,0.450000,-0.550000,0.300000,0.000000,1772837831489.646,0.462613,-0.558068,0.324879,0.000000,0.000000,0.000000,1.000000,position_only
2026-03-06T22:57:11.501329+00:00,1772837831501.327,0.461182,-0.556641,0.325195,-0.110107,0.336914,0.204102,18336,17492,18910,17318,0.450000,-0.550000,0.300000,0.000000,1772837831498.265,0.462579,-0.557964,0.324908,0.000000,0.000000,0.000000,1.000000,position_only
2026-03-06T22:57:11.510889+00:00,1772837831510.888,0.461182,-0.556641,0.325195,-0.102051,0.339600,0.212646,18312,17530,18775,17420,0.450000,-0.550000,0.300000,0.000000,1772837831506.815,0.462503,-0.557918,0.324933,0.000000,0.000000,0.000000,1.000000,position_only
2026-03-06T22:57:11.521398+00:00,1772837831521.398,0.461182,-0.556641,0.325195,-0.088928,0.318115,0.223022,18424,17498,18602,17488,0.450000,-0.550000,0.300000,0.000000,1772837831515.323,0.462443,-0.557828,0.324957,0.000000,0.000000,0.000000,1.000000,position_only
2026-03-06T22:57:11.531788+00:00,1772837831531.787,0.461182,-0.556641,0.325195,-0.075073,0.305664,0.218140,17778,18123,18077,18007,0.450000,-0.550000,0.300000,0.000000,1772837831524.183,0.462417,-0.557787,0.324966,0.000000,0.000000,0.000000,1.000000,position_only
2026-03-06T22:57:11.540872+00:00,1772837831540.872,0.461182,-0.556152,0.325195,-0.055634,0.306885,0.223633,18137,17712,18527,17577,0.450000,-0.550000,0.300000,0.000000,1772837831532.648,0.462367,-0.557726,0.325000,0.000000,0.000000,0.000000,1.000000,position_only
2026-03-06T22:57:11.551228+00:00,1772837831551.228,0.460938,-0.556152,0.325439,-0.045715,0.290039,0.235962,18427,17308,18674,17538,0.450000,-0.550000,0.300000,0.000000,1772837831549.647,0.462258,-0.557630,0.325058,0.000000,0.000000,0.000000,1.000000,position_only
2026-03-06T22:57:11.561585+00:00,1772837831561.584,0.460938,-0.556152,0.325439,-0.059570,0.240234,0.239136,18196,17508,18413,17827,0.450000,-0.550000,0.300000,0.000000,1772837831558.235,0.462226,-0.557510,0.325083,0.000000,0.000000,0.000000,1.000000,position_only
2026-03-06T22:57:11.571377+00:00,1772837831571.376,0.460938,-0.556152,0.325439,-0.081848,0.193237,0.246948,17863,17817,18140,18131,0.450000,-0.550000,0.300000,0.000000,1772837831566.710,0.462151,-0.557458,0.325111,0.000000,0.000000,0.000000,1.000000,position_only
2026-03-06T22:57:11.581653+00:00,1772837831581.652,0.460938,-0.556152,0.325439,-0.114563,0.156006,0.242798,17863,17770,18254,18072,0.450000,-0.550000,0.300000,0.000000,1772837831575.246,0.462120,-0.557392,0.325105,0.000000,0.000000,0.000000,1.000000,position_only
2026-03-06T22:57:11.591880+00:00,1772837831591.879,0.460938,-0.556152,0.325439,-0.122681,0.142212,0.244385,17415,18313,17842,18379,0.450000,-0.550000,0.300000,0.000000,1772837831583.742,0.462061,-0.557350,0.325127,0.000000,0.000000,0.000000,1.000000,position_only
2026-03-06T22:57:11.601137+00:00,1772837831601.137,0.460693,-0.556152,0.325439,-0.125122,0.177490,0.241577,17938,17950,18591,17443,0.450000,-0.550000,0.300000,0.000000,1772837831592.301,0.462061,-0.557350,0.325127,0.000000,0.000000,0.000000,1.000000,position_only
2026-03-06T22:57:11.611066+00:00,1772837831611.065,0.460693,-0.555664,0.325439,-0.103821,0.204834,0.246704,17900,17949,18143,17926,0.450000,-0.550000,0.300000,0.000000,1772837831609.678,0.461893,-0.557226,0.325171,0.000000,0.000000,0.000000,1.000000,position_only
2026-03-06T22:57:11.622151+00:00,1772837831622.151,0.460693,-0.556152,0.325439,-0.102478,0.167969,0.244629,18162,17668,18376,17695,0.450000,-0.550000,0.300000,0.000000,1772837831618.175,0.461859,-0.557172,0.325187,0.000000,0.000000,0.000000,1.000000,position_only
2026-03-06T22:57:11.631796+00:00,1772837831631.795,0.460693,-0.555664,0.325439,-0.084473,0.171997,0.250244,17848,17951,18199,17888,0.450000,-0.550000,0.300000,0.000000,1772837831626.959,0.461794,-0.557129,0.325215,0.000000,0.000000,0.000000,1.000000,position_only
2026-03-06T22:57:11.641862+00:00,1772837831641.861,0.460693,-0.555664,0.325684,-0.082336,0.182861,0.250244,17925,17832,18297,17830,0.450000,-0.550000,0.300000,0.000000,1772837831635.480,0.461739,-0.557088,0.325230,0.000000,0.000000,0.000000,1.000000,position_only
2026-03-06T22:57:11.650897+00:00,1772837831650.896,0.460449,-0.555664,0.325684,-0.079102,0.176636,0.253906,18176,17632,18326,17742,0.450000,-0.550000,0.300000,0.000000,1772837831644.093,0.461716,-0.557032,0.325250,0.000000,0.000000,0.000000,1.000000,position_only
2026-03-06T22:57:11.661361+00:00,1772837831661.360,0.460449,-0.555664,0.325684,-0.091675,0.153442,0.253662,17438,18238,17748,18467,0.450000,-0.550000,0.300000,0.000000,1772837831652.610,0.461610,-0.557009,0.325285,0.000000,0.000000,0.000000,1.000000,position_only
2026-03-06T22:57:11.671378+00:00,1772837831671.377,0.460449,-0.555664,0.325684,-0.104370,0.156494,0.250488,17754,17945,18372,17839,0.450000,-0.550000,0.300000,0.000000,1772837831669.942,0.461476,-0.556910,0.325308,0.000000,0.000000,0.000000,1.000000,position_only
2026-03-06T22:57:11.681330+00:00,1772837831681.330,0.460205,-0.555664,0.325684,-0.115417,0.206055,0.249878,17537,18167,18112,18116,0.450000,-0.550000,0.300000,0.000000,1772837831678.531,0.461428,-0.556892,0.325312,0.000000,0.000000,0.000000,1.000000,position_only
2026-03-06T22:57:11.691915+00:00,1772837831691.914,0.460205,-0.555664,0.325684,-0.120789,0.220825,0.244629,17860,17943,18248,17888,0.450000,-0.550000,0.300000,0.000000,1772837831687.024,0.461394,-0.556858,0.325322,0.000000,0.000000,0.000000,1.000000,position_only
2026-03-06T22:57:11.701653+00:00,1772837831701.653,0.460205,-0.555664,0.325684,-0.123779,0.177246,0.245361,17862,17936,17916,18221,0.450000,-0.550000,0.300000,0.000000,1772837831695.807,0.461286,-0.556819,0.325356,0.000000,0.000000,0.000000,1.000000,position_only
2026-03-06T22:57:11.712148+00:00,1772837831712.147,0.460205,-0.555664,0.325684,-0.114136,0.146606,0.241455,17754,18066,17841,18267,0.450000,-0.550000,0.300000,0.000000,1772837831704.320,0.461229,-0.556776,0.325376,0.000000,0.000000,0.000000,1.000000,position_only
2026-03-06T22:57:11.720916+00:00,1772837831720.916,0.459961,-0.555664,0.325684,-0.119141,0.103333,0.235718,17354,18352,17552,18668,0.450000,-0.550000,0.300000,0.000000,1772837831712.850,0.461152,-0.556768,0.325380,0.000000,0.000000,0.000000,1.000000,position_only
2026-03-06T22:57:11.730976+00:00,1772837831730.975,0.459961,-0.555176,0.325684,-0.140259,0.065430,0.224609,17315,18343,17498,18763,0.450000,-0.550000,0.300000,0.000000,1772837831730.347,0.461073,-0.556692,0.325414,0.000000,0.000000,0.000000,1.000000,position_only
2026-03-06T22:57:11.741795+00:00,1772837831741.795,0.459961,-0.555176,0.325684,-0.137451,0.024490,0.214844,17935,17893,18216,17878,0.450000,-0.550000,0.300000,0.000000,1772837831738.897,0.460950,-0.556683,0.325431,0.000000,0.000000,0.000000,1.000000,position_only
2026-03-06T22:57:11.752432+00:00,1772837831752.431,0.459961,-0.555176,0.325684,-0.125854,0.063354,0.216797,17613,18274,18011,18018,0.450000,-0.550000,0.300000,0.000000,1772837831747.397,0.460913,-0.556662,0.325417,0.000000,0.000000,0.000000,1.000000,position_only
2026-03-06T22:57:11.762085+00:00,1772837831762.084,0.459961,-0.555176,0.325684,-0.096924,0.114746,0.217163,17753,18193,18213,17746,0.450000,-0.550000,0.300000,0.000000,1772837831755.893,0.460823,-0.556667,0.325412,0.000000,0.000000,0.000000,1.000000,position_only
2026-03-06T22:57:11.771868+00:00,1772837831771.867,0.459717,-0.555176,0.325684,-0.084412,0.140259,0.206909,17484,18346,17835,18254,0.450000,-0.550000,0.300000,0.000000,1772837831764.602,0.460757,-0.556638,0.325435,0.000000,0.000000,0.000000,1.000000,position_only
2026-03-06T22:57:11.781645+00:00,1772837831781.645,0.459717,-0.555176,0.325684,-0.106567,0.144531,0.199219,17418,18219,17899,18384,0.450000,-0.550000,0.300000,0.000000,1772837831773.221,0.460711,-0.556608,0.325432,0.000000,0.000000,0.000000,1.000000,position_only
2026-03-06T22:57:11.791689+00:00,1772837831791.688,0.459717,-0.555176,0.325684,-0.147339,0.147827,0.192993,17846,17792,18279,18002,0.450000,-0.550000,0.300000,0.000000,1772837831790.200,0.460510,-0.556563,0.325439,0.000000,0.000000,0.000000,1.000000,position_only
2026-03-06T22:57:11.801182+00:00,1772837831801.182,0.459473,-0.555176,0.325684,-0.164673,0.162842,0.190918,17551,18168,17981,18221,0.450000,-0.550000,0.300000,0.000000,1772837831798.882,0.460438,-0.556539,0.325443,0.000000,0.000000,0.000000,1.000000,position_only
2026-03-06T22:57:11.812299+00:00,1772837831812.299,0.459473,-0.555176,0.325684,-0.158203,0.175049,0.190796,17963,17840,18340,17766,0.450000,-0.550000,0.300000,0.000000,1772837831807.591,0.460360,-0.556574,0.325437,0.000000,0.000000,0.000000,1.000000,position_only
2026-03-06T22:57:11.822164+00:00,1772837831822.164,0.459473,-0.555176,0.325684,-0.155762,0.161865,0.195435,18306,17508,18484,17589,0.450000,-0.550000,0.300000,0.000000,1772837831816.106,0.460315,-0.556572,0.325435,0.000000,0.000000,0.000000,1.000000,position_only
2026-03-06T22:57:11.832145+00:00,1772837831832.145,0.459473,-0.555176,0.325684,-0.144409,0.132202,0.203125,17953,17922,18055,17945,0.450000,-0.550000,0.300000,0.000000,1772837831824.882,0.460164,-0.556555,0.325444,0.000000,0.000000,0.000000,1.000000,position_only
2026-03-06T22:57:11.841928+00:00,1772837831841.927,0.459229,-0.555176,0.325928,-0.144775,0.121338,0.194336,17721,18021,18031,18089,0.450000,-0.550000,0.300000,0.000000,1772837831833.462,0.460082,-0.556550,0.325465,0.000000,0.000000,0.000000,1.000000,position_only
2026-03-06T22:57:11.852060+00:00,1772837831852.059,0.459229,-0.555176,0.325928,-0.145630,0.117920,0.186768,17519,18329,17705,18303,0.450000,-0.550000,0.300000,0.000000,1772837831850.496,0.459960,-0.556535,0.325481,0.000000,0.000000,0.000000,1.000000,position_only
2026-03-06T22:57:11.861594+00:00,1772837831861.593,0.458984,-0.555176,0.325928,-0.152344,0.096558,0.181641,17624,17982,18029,18221,0.450000,-0.550000,0.300000,0.000000,1772837831858.963,0.459860,-0.556534,0.325501,0.000000,0.000000,0.000000,1.000000,position_only
2026-03-06T22:57:11.872215+00:00,1772837831872.215,0.458984,-0.555176,0.325928,-0.180542,0.106934,0.176636,17776,17943,18279,17856,0.450000,-0.550000,0.300000,0.000000,1772837831867.622,0.459776,-0.556513,0.325505,0.000000,0.000000,0.000000,1.000000,position_only
2026-03-06T22:57:11.882036+00:00,1772837831882.035,0.458984,-0.555176,0.325928,-0.180298,0.096741,0.173828,17740,17969,17945,18191,0.450000,-0.550000,0.300000,0.000000,1772837831875.651,0.459698,-0.556527,0.325517,0.000000,0.000000,0.000000,1.000000,position_only
2026-03-06T22:57:11.892156+00:00,1772837831892.155,0.458984,-0.555176,0.325928,-0.186523,0.079346,0.168579,17681,18040,17973,18152,0.450000,-0.550000,0.300000,0.000000,1772837831884.345,0.459617,-0.556521,0.325523,0.000000,0.000000,0.000000,1.000000,position_only
2026-03-06T22:57:11.901916+00:00,1772837831901.915,0.458740,-0.555176,0.325928,-0.178467,0.067749,0.173340,17889,17919,18168,17892,0.450000,-0.550000,0.300000,0.000000,1772837831901.438,0.459563,-0.556507,0.325524,0.000000,0.000000,0.000000,1.000000,position_only
2026-03-06T22:57:11.912374+00:00,1772837831912.374,0.458740,-0.555176,0.325928,-0.167847,0.092773,0.173218,17994,17820,18373,17698,0.450000,-0.550000,0.300000,0.000000,1772837831910.031,0.459358,-0.556468,0.325568,0.000000,0.000000,0.000000,1.000000,position_only
2026-03-06T22:57:11.921467+00:00,1772837831921.466,0.458496,-0.555176,0.325928,-0.180420,0.101379,0.169556,17491,18198,17944,18252,0.450000,-0.550000,0.300000,0.000000,1772837831918.595,0.459224,-0.556490,0.325588,0.000000,0.000000,0.000000,1.000000,position_only
2026-03-06T22:57:11.931341+00:00,1772837831931.340,0.458496,-0.555176,0.325928,-0.214844,0.077515,0.163696,17808,17790,18109,18194,0.450000,-0.550000,0.300000,0.000000,1772837831927.095,0.459167,-0.556491,0.325560,0.000000,0.000000,0.000000,1.000000,position_only
2026-03-06T22:57:11.941903+00:00,1772837831941.903,0.458496,-0.555176,0.325928,-0.213013,0.061676,0.167480,17951,17945,18098,17941,0.450000,-0.550000,0.300000,0.000000,1772837831935.711,0.459088,-0.556452,0.325572,0.000000,0.000000,0.000000,1.000000,position_only
2026-03-06T22:57:11.952462+00:00,1772837831952.461,0.458252,-0.555176,0.325928,-0.205200,0.065369,0.165894,17717,18141,18070,18017,0.450000,-0.550000,0.300000,0.000000,1772837831944.202,0.459017,-0.556453,0.325563,0.000000,0.000000,0.000000,1.000000,position_only
2026-03-06T22:57:11.962175+00:00,1772837831962.174,0.458252,-0.555176,0.325928,-0.210449,0.071045,0.155884,17527,18136,17991,18295,0.450000,-0.550000,0.300000,0.000000,1772837831961.349,0.458849,-0.556457,0.325546,0.000000,0.000000,0.000000,1.000000,position_only
2026-03-06T22:57:11.971408+00:00,1772837831971.407,0.458252,-0.555176,0.325928,-0.206787,0.077759,0.170166,19031,16867,19270,16795,0.450000,-0.550000,0.300000,0.000000,1772837831970.065,0.458790,-0.556429,0.325496,0.000000,0.000000,0.000000,1.000000,position_only
2026-03-06T22:57:11.983359+00:00,1772837831983.358,0.458008,-0.555176,0.325684,-0.202759,0.094177,0.189697,17968,17967,18287,17890,0.450000,-0.550000,0.300000,0.000000,1772837831978.531,0.458688,-0.556431,0.325469,0.000000,0.000000,0.000000,1.000000,position_only
2026-03-06T22:57:11.992835+00:00,1772837831992.834,0.458008,-0.555176,0.325684,-0.175537,0.132446,0.192505,17624,18475,17982,18105,0.450000,-0.550000,0.300000,0.000000,1772837831987.062,0.458615,-0.556412,0.325382,0.000000,0.000000,0.000000,1.000000,position_only
2026-03-06T22:57:12.002703+00:00,1772837832002.702,0.458008,-0.555176,0.325684,-0.123230,0.194946,0.188843,17870,18351,18278,17873,0.450000,-0.550000,0.300000,0.000000,1772837831995.530,0.458517,-0.556424,0.325269,0.000000,0.000000,0.000000,1.000000,position_only
2026-03-06T22:57:12.011929+00:00,1772837832011.928,0.457764,-0.555176,0.325439,-0.058044,0.269043,0.201050,18939,17658,19241,16776,0.450000,-0.550000,0.300000,0.000000,1772837832004.319,0.458446,-0.556410,0.325133,0.000000,0.000000,0.000000,1.000000,position_only
2026-03-06T22:57:12.022777+00:00,1772837832022.777,0.457764,-0.555176,0.325195,0.030914,0.384277,0.220703,18518,18264,18933,17211,0.450000,-0.550000,0.300000,0.000000,1772837832021.271,0.458141,-0.556518,0.324702,0.000000,0.000000,0.000000,1.000000,position_only
2026-03-06T22:57:12.032656+00:00,1772837832032.656,0.457520,-0.555176,0.324951,0.135376,0.511230,0.224976,17907,19087,18385,17925,0.450000,-0.550000,0.300000,0.000000,1772837832029.839,0.458024,-0.556582,0.324405,0.000000,0.000000,0.000000,1.000000,position_only
2026-03-06T22:57:12.042570+00:00,1772837832042.569,0.457520,-0.555176,0.324463,0.240601,0.644043,0.222656,18662,18693,19112,17391,0.450000,-0.550000,0.300000,0.000000,1772837832038.489,0.457883,-0.556607,0.324078,0.000000,0.000000,0.000000,1.000000,position_only
2026-03-06T22:57:12.052580+00:00,1772837832052.579,0.457275,-0.555176,0.324219,0.338379,0.767578,0.236206,19144,18493,19639,16833,0.450000,-0.550000,0.300000,0.000000,1772837832047.073,0.457766,-0.556619,0.323718,0.000000,0.000000,0.000000,1.000000,position_only
2026-03-06T22:57:12.062779+00:00,1772837832062.778,0.457275,-0.555176,0.323730,0.459473,0.920898,0.258301,19003,18909,19424,17244,0.450000,-0.550000,0.300000,0.000000,1772837832055.535,0.457584,-0.556645,0.323362,0.000000,0.000000,0.000000,1.000000,position_only
