time_wall,time_ms,state_x,state_y,state_z,roll,pitch,yaw,u1_16,u2_16,u3_16,u4_16,setpoint_x,setpoint_y,setpoint_z,setpoint_yaw_deg,mocap_time_ms,mocap_x,mocap_y,mocap_z,mocap_qx,mocap_qy,mocap_qz,mocap_qw,mocap_mode
2026-03-07T02:09:41.469293+00:00,1772849381469.290,0.453125,-0.532715,0.324951,0.462158,0.142090,-1.033203,20128,19131,19910,18936,0.450000,-0.550000,0.300000,0.000000,1772849381468.856,0.453519,-0.529821,0.325009,0.000000,0.000000,0.000000,1.000000,position_only
2026-03-07T02:09:41.477983+00:00,1772849381477.981,0.453125,-0.532715,0.325195,0.444336,0.134766,-1.031250,20128,19131,19910,18936,0.450000,-0.550000,0.300000,0.000000,1772849381477.515,0.453480,-0.529856,0.325036,0.000000,0.000000,0.000000,1.000000,position_only
2026-03-07T02:09:41.488797+00:00,1772849381488.796,0.453125,-0.532715,0.325195,0.421631,0.098450,-1.037109,20128,19131,19910,18936,0.450000,-0.550000,0.300000,0.000000,1772849381486.084,0.453462,-0.529883,0.325053,0.000000,0.000000,0.000000,1.000000,position_only
2026-03-07T02:09:41.499508+00:00,1772849381499.507,0.452881,-0.532715,0.325195,0.409912,0.078674,-1.039062,20128,19131,19910,18936,0.450000,-0.550000,0.300000,0.000000,1772849381494.655,0.453427,-0.529927,0.325070,0.000000,0.000000,0.000000,1.000000,position_only
2026-03-07T02:09:41.508275+00:00,1772849381508.274,0.452881,-0.532715,0.325195,0.413086,0.070496,-1.044922,20128,19131,19910,18936,0.450000,-0.550000,0.300000,0.000000,1772849381503.287,0.453386,-0.529976,0.325074,0.000000,0.000000,0.000000,1.000000,position_only
2026-03-07T02:09:41.518705+00:00,1772849381518.705,0.452881,-0.532715,0.325195,0.421387,0.067688,-1.055664,20128,19131,19910,18936,0.450000,-0.550000,0.300000,0.000000,1772849381511.856,0.453351,-0.530017,0.325100,0.000000,0.000000,0.000000,1.000000,position_only
2026-03-07T02:09:41.529691+00:00,1772849381529.690,0.452881,-0.532715,0.325195,0.428711,0.059570,-1.063477,20128,19131,19910,18936,0.450000,-0.550000,0.300000,0.000000,1772849381528.579,0.453273,-0.530104,0.325141,0.000000,0.000000,0.000000,1.000000,position_only
2026-03-07T02:09:41.538984+00:00,1772849381538.982,0.452881,-0.532715,0.325195,0.439209,0.052795,-1.070312,20128,19131,19910,18936,0.450000,-0.550000,0.300000,0.000000,1772849381537.192,0.453226,-0.530145,0.325173,0.000000,0.000000,0.000000,1.000000,position_only
2026-03-07T02:09:41.548593+00:00,1772849381548.591,0.452881,-0.532715,0.325195,0.430176,0.043488,-1.075195,20128,19131,19910,18936,0.450000,-0.550000,0.300000,0.000000,1772849381545.272,0.453169,-0.530198,0.325190,0.000000,0.000000,0.000000,1.000000,position_only
2026-03-07T02:09:41.558981+00:00,1772849381558.980,0.452637,-0.532715,0.325195,0.435791,0.051544,-1.075195,20128,19131,19910,18936,0.450000,-0.550000,0.300000,0.000000,1772849381554.143,0.453112,-0.530242,0.325210,0.000000,0.000000,0.000000,1.000000,position_only
2026-03-07T02:09:41.569536+00:00,1772849381569.535,0.452637,-0.532715,0.325439,0.437744,0.053284,-1.083008,20128,19131,19910,18936,0.450000,-0.550000,0.300000,0.000000,1772849381562.725,0.453080,-0.530273,0.325223,0.000000,0.000000,0.000000,1.000000,position_only
2026-03-07T02:09:41.579414+00:00,1772849381579.413,0.452637,-0.533203,0.325439,0.427490,0.067871,-1.077148,20128,19131,19910,18936,0.450000,-0.550000,0.300000,0.000000,1772849381571.558,0.453009,-0.530344,0.325253,0.000000,0.000000,0.000000,1.000000,position_only
2026-03-07T02:09:41.588532+00:00,1772849381588.531,0.452637,-0.533203,0.325439,0.418213,0.091858,-1.078125,20128,19131,19910,18936,0.450000,-0.550000,0.300000,0.000000,1772849381580.520,0.453009,-0.530344,0.325253,0.000000,0.000000,0.000000,1.000000,position_only
2026-03-07T02:09:41.599052+00:00,1772849381599.052,0.452637,-0.533203,0.325439,0.398926,0.093445,-1.085938,20128,19131,19910,18936,0.450000,-0.550000,0.300000,0.000000,1772849381597.764,0.452889,-0.530456,0.325291,0.000000,0.000000,0.000000,1.000000,position_only
2026-03-07T02:09:41.609453+00:00,1772849381609.453,0.452393,-0.533203,0.325439,0.378662,0.089722,-1.096680,20128,19131,19910,18936,0.450000,-0.550000,0.300000,0.000000,1772849381606.381,0.452841,-0.530490,0.325324,0.000000,0.000000,0.000000,1.000000,position_only
2026-03-07T02:09:41.619950+00:00,1772849381619.949,0.452393,-0.533203,0.325439,0.378662,0.109680,-1.102539,20128,19131,19910,18936,0.450000,-0.550000,0.300000,0.000000,1772849381614.881,0.452796,-0.530536,0.325325,0.000000,0.000000,0.000000,1.000000,position_only
2026-03-07T02:09:41.628522+00:00,1772849381628.522,0.452393,-0.533203,0.325439,0.383789,0.107300,-1.113281,20128,19131,19910,18936,0.450000,-0.550000,0.300000,0.000000,1772849381623.750,0.452727,-0.530589,0.325345,0.000000,0.000000,0.000000,1.000000,position_only
2026-03-07T02:09:41.638469+00:00,1772849381638.468,0.452393,-0.533203,0.325439,0.385986,0.095032,-1.132812,20128,19131,19910,18936,0.450000,-0.550000,0.300000,0.000000,1772849381632.242,0.452684,-0.530621,0.325350,0.000000,0.000000,0.000000,1.000000,position_only
2026-03-07T02:09:41.648285+00:00,1772849381648.285,0.452393,-0.533203,0.325439,0.387207,0.079407,-1.145508,20128,19131,19910,18936,0.450000,-0.550000,0.300000,0.000000,1772849381640.749,0.452657,-0.530668,0.325363,0.000000,0.000000,0.000000,1.000000,position_only
2026-03-07T02:09:41.659742+00:00,1772849381659.741,0.452148,-0.533203,0.325439,0.404297,0.080505,-1.152344,20128,19131,19910,18936,0.450000,-0.550000,0.300000,0.000000,1772849381657.781,0.452557,-0.530799,0.325384,0.000000,0.000000,0.000000,1.000000,position_only
2026-03-07T02:09:41.669133+00:00,1772849381669.131,0.452148,-0.533691,0.325439,0.425781,0.095459,-1.162109,20128,19131,19910,18936,0.450000,-0.550000,0.300000,0.000000,1772849381666.398,0.452505,-0.530844,0.325399,0.000000,0.000000,0.000000,1.000000,position_only
2026-03-07T02:09:41.679552+00:00,1772849381679.551,0.452148,-0.533691,0.325684,0.431885,0.110107,-1.164062,20128,19131,19910,18936,0.450000,-0.550000,0.300000,0.000000,1772849381675.064,0.452468,-0.530879,0.325413,0.000000,0.000000,0.000000,1.000000,position_only
2026-03-07T02:09:41.689230+00:00,1772849381689.229,0.452148,-0.533203,0.325684,0.421143,0.109070,-1.166016,20128,19131,19910,18936,0.450000,-0.550000,0.300000,0.000000,1772849381683.530,0.452428,-0.530934,0.325426,0.000000,0.000000,0.000000,1.000000,position_only
2026-03-07T02:09:41.699312+00:00,1772849381699.310,0.452148,-0.533691,0.325684,0.409668,0.086731,-1.186523,20128,19131,19910,18936,0.450000,-0.550000,0.300000,0.000000,1772849381692.033,0.452394,-0.530973,0.325438,0.000000,0.000000,0.000000,1.000000,position_only
2026-03-07T02:09:41.709739+00:00,1772849381709.738,0.451904,-0.533691,0.325684,0.413086,0.059265,-1.211914,20128,19131,19910,18936,0.450000,-0.550000,0.300000,0.000000,1772849381709.221,0.452331,-0.531063,0.325459,0.000000,0.000000,0.000000,1.000000,position_only
2026-03-07T02:09:41.719798+00:00,1772849381719.797,0.451904,-0.533691,0.325684,0.414795,0.015640,-1.233398,20128,19131,19910,18936,0.450000,-0.550000,0.300000,0.000000,1772849381717.706,0.452268,-0.531114,0.325471,0.000000,0.000000,0.000000,1.000000,position_only
2026-03-07T02:09:41.729251+00:00,1772849381729.251,0.451904,-0.533691,0.325684,0.427734,0.005630,-1.247070,20128,19131,19910,18936,0.450000,-0.550000,0.300000,0.000000,1772849381726.224,0.452221,-0.531154,0.325478,0.000000,0.000000,0.000000,1.000000,position_only
2026-03-07T02:09:41.739352+00:00,1772849381739.351,0.451904,-0.533691,0.325684,0.435547,-0.004234,-1.260742,20128,19131,19910,18936,0.450000,-0.550000,0.300000,0.000000,1772849381734.772,0.452185,-0.531184,0.325488,0.000000,0.000000,0.000000,1.000000,position_only
2026-03-07T02:09:41.749155+00:00,1772849381749.154,0.451660,-0.533691,0.325684,0.436279,-0.011139,-1.270508,20128,19131,19910,18936,0.450000,-0.550000,0.300000,0.000000,1772849381743.279,0.452132,-0.531224,0.325493,0.000000,0.000000,0.000000,1.000000,position_only
2026-03-07T02:09:41.759678+00:00,1772849381759.677,0.451660,-0.533691,0.325684,0.422852,-0.021851,-1.287109,20128,19131,19910,18936,0.450000,-0.550000,0.300000,0.000000,1772849381751.774,0.452093,-0.531281,0.325507,0.000000,0.000000,0.000000,1.000000,position_only
2026-03-07T02:09:41.769522+00:00,1772849381769.521,0.451660,-0.533691,0.325684,0.408447,-0.020325,-1.299805,20128,19131,19910,18936,0.450000,-0.550000,0.300000,0.000000,1772849381769.006,0.451994,-0.531349,0.325551,0.000000,0.000000,0.000000,1.000000,position_only
2026-03-07T02:09:41.778916+00:00,1772849381778.915,0.451660,-0.534180,0.325684,0.401855,-0.008759,-1.306641,20128,19131,19910,18936,0.450000,-0.550000,0.300000,0.000000,1772849381777.532,0.451966,-0.531391,0.325558,0.000000,0.000000,0.000000,1.000000,position_only
2026-03-07T02:09:41.789414+00:00,1772849381789.413,0.451660,-0.534180,0.325684,0.392578,0.002050,-1.309570,20128,19131,19910,18936,0.450000,-0.550000,0.300000,0.000000,1772849381786.085,0.451927,-0.531434,0.325562,0.000000,0.000000,0.000000,1.000000,position_only
2026-03-07T02:09:41.800035+00:00,1772849381800.034,0.451416,-0.534180,0.325684,0.391846,0.018845,-1.320312,20128,19131,19910,18936,0.450000,-0.550000,0.300000,0.000000,1772849381794.762,0.451870,-0.531497,0.325564,0.000000,0.000000,0.000000,1.000000,position_only
2026-03-07T02:09:41.809410+00:00,1772849381809.409,0.451416,-0.534180,0.325684,0.378418,0.017227,-1.326172,20128,19131,19910,18936,0.450000,-0.550000,0.300000,0.000000,1772849381803.302,0.451801,-0.531540,0.325576,0.000000,0.000000,0.000000,1.000000,position_only
2026-03-07T02:09:41.819521+00:00,1772849381819.519,0.451416,-0.534180,0.325684,0.377441,0.037781,-1.327148,20128,19131,19910,18936,0.450000,-0.550000,0.300000,0.000000,1772849381811.761,0.451786,-0.531581,0.325587,0.000000,0.000000,0.000000,1.000000,position_only
2026-03-07T02:09:41.828665+00:00,1772849381828.664,0.451416,-0.534180,0.325684,0.381836,0.057190,-1.326172,20128,19131,19910,18936,0.450000,-0.550000,0.300000,0.000000,1772849381820.297,0.451763,-0.531622,0.325594,0.000000,0.000000,0.000000,1.000000,position_only
2026-03-07T02:09:41.840172+00:00,1772849381840.171,0.451416,-0.534180,0.325684,0.388672,0.065857,-1.328125,20128,19131,19910,18936,0.450000,-0.550000,0.300000,0.000000,1772849381837.365,0.451661,-0.531766,0.325590,0.000000,0.000000,0.000000,1.000000,position_only
2026-03-07T02:09:41.849941+00:00,1772849381849.940,0.451172,-0.534180,0.325684,0.383057,0.051666,-1.332031,20128,19131,19910,18936,0.450000,-0.550000,0.300000,0.000000,1772849381845.860,0.451641,-0.531794,0.325590,0.000000,0.000000,0.000000,1.000000,position_only
2026-03-07T02:09:41.859009+00:00,1772849381859.009,0.451172,-0.534180,0.325684,0.386230,0.044067,-1.334961,20128,19131,19910,18936,0.450000,-0.550000,0.300000,0.000000,1772849381854.415,0.451625,-0.531881,0.325565,0.000000,0.000000,0.000000,1.000000,position_only
2026-03-07T02:09:41.870171+00:00,1772849381870.170,0.451172,-0.534180,0.325684,0.391357,0.051208,-1.335938,20128,19131,19910,18936,0.450000,-0.550000,0.300000,0.000000,1772849381863.144,0.451543,-0.532012,0.325556,0.000000,0.000000,0.000000,1.000000,position_only
2026-03-07T02:09:41.878780+00:00,1772849381878.779,0.451172,-0.534180,0.325684,0.402588,0.059784,-1.348633,20128,19131,19910,18936,0.450000,-0.550000,0.300000,0.000000,1772849381871.705,0.451543,-0.532012,0.325556,0.000000,0.000000,0.000000,1.000000,position_only
2026-03-07T02:09:41.889816+00:00,1772849381889.815,0.451172,-0.534668,0.325684,0.403076,0.069336,-1.351562,20128,19131,19910,18936,0.450000,-0.550000,0.300000,0.000000,1772849381888.935,0.451508,-0.532085,0.325531,0.000000,0.000000,0.000000,1.000000,position_only
2026-03-07T02:09:41.899082+00:00,1772849381899.081,0.450928,-0.534668,0.325684,0.387695,0.058899,-1.355469,20128,19131,19910,18936,0.450000,-0.550000,0.300000,0.000000,1772849381897.604,0.451455,-0.532202,0.325530,0.000000,0.000000,0.000000,1.000000,position_only
2026-03-07T02:09:41.909136+00:00,1772849381909.135,0.450928,-0.534668,0.325684,0.372314,0.039673,-1.362305,20128,19131,19910,18936,0.450000,-0.550000,0.300000,0.000000,1772849381906.168,0.451410,-0.532266,0.325512,0.000000,0.000000,0.000000,1.000000,position_only
2026-03-07T02:09:41.919818+00:00,1772849381919.816,0.450928,-0.534668,0.325684,0.369385,0.016342,-1.363281,20128,19131,19910,18936,0.450000,-0.550000,0.300000,0.000000,1772849381914.650,0.451395,-0.532295,0.325504,0.000000,0.000000,0.000000,1.000000,position_only
2026-03-07T02:09:41.929015+00:00,1772849381929.013,0.450928,-0.534668,0.325684,0.384277,0.001177,-1.359375,20128,19131,19910,18936,0.450000,-0.550000,0.300000,0.000000,1772849381923.153,0.451396,-0.532361,0.325506,0.000000,0.000000,0.000000,1.000000,position_only
2026-03-07T02:09:41.939626+00:00,1772849381939.625,0.450928,-0.534668,0.325684,0.384766,-0.016373,-1.351562,20128,19131,19910,18936,0.450000,-0.550000,0.300000,0.000000,1772849381931.651,0.451389,-0.532416,0.325504,0.000000,0.000000,0.000000,1.000000,position_only
2026-03-07T02:09:41.950038+00:00,1772849381950.037,0.450928,-0.534668,0.325684,0.373779,-0.040558,-1.356445,20128,19131,19910,18936,0.450000,-0.550000,0.300000,0.000000,1772849381948.707,0.451346,-0.532524,0.325479,0.000000,0.000000,0.000000,1.000000,position_only
2026-03-07T02:09:41.959796+00:00,1772849381959.795,0.450928,-0.534668,0.325439,0.377930,-0.028534,-1.347656,20128,19131,19910,18936,0.450000,-0.550000,0.300000,0.000000,1772849381957.246,0.451325,-0.532562,0.325471,0.000000,0.000000,0.000000,1.000000,position_only
2026-03-07T02:09:41.969716+00:00,1772849381969.715,0.450684,-0.535156,0.325439,0.399902,0.004623,-1.334961,20128,19131,19910,18936,0.450000,-0.550000,0.300000,0.000000,1772849381965.707,0.451311,-0.532636,0.325460,0.000000,0.000000,0.000000,1.000000,position_only
2026-03-07T02:09:41.979548+00:00,1772849381979.547,0.450684,-0.534668,0.325439,0.405029,0.021362,-1.324219,20128,19131,19910,18936,0.450000,-0.550000,0.300000,0.000000,1772849381974.197,0.451289,-0.532693,0.325461,0.000000,0.000000,0.000000,1.000000,position_only
2026-03-07T02:09:41.989319+00:00,1772849381989.318,0.450684,-0.535156,0.325439,0.406006,0.047028,-1.304688,20128,19131,19910,18936,0.450000,-0.550000,0.300000,0.000000,1772849381983.019,0.451286,-0.532760,0.325445,0.000000,0.000000,0.000000,1.000000,position_only
2026-03-07T02:09:41.999987+00:00,1772849381999.986,0.450684,-0.535156,0.325439,0.395752,0.058167,-1.287109,20128,19131,19910,18936,0.450000,-0.550000,0.300000,0.000000,1772849381991.650,0.451276,-0.532815,0.325438,0.000000,0.000000,0.000000,1.000000,position_only
2026-03-07T02:09:42.009938+00:00,1772849382009.937,0.450684,-0.535156,0.325439,0.386475,0.063110,-1.276367,20128,19131,19910,18936,0.450000,-0.550000,0.300000,0.000000,1772849382008.705,0.451246,-0.532935,0.325450,0.000000,0.000000,0.000000,1.000000,position_only
2026-03-07T02:09:42.019763+00:00,1772849382019.762,0.450684,-0.535156,0.325439,0.384521,0.055298,-1.283203,20128,19131,19910,18936,0.450000,-0.550000,0.300000,0.000000,1772849382017.276,0.451260,-0.533006,0.325441,0.000000,0.000000,0.000000,1.000000,position_only
2026-03-07T02:09:42.030285+00:00,1772849382030.284,0.450684,-0.535156,0.325439,0.395264,0.054230,-1.285156,20128,19131,19910,18936,0.450000,-0.550000,0.300000,0.000000,1772849382025.896,0.451255,-0.533080,0.325440,0.000000,0.000000,0.000000,1.000000,position_only
2026-03-07T02:09:42.039337+00:00,1772849382039.336,0.450684,-0.535156,0.325439,0.408203,0.050995,-1.276367,20128,19131,19910,18936,0.450000,-0.550000,0.300000,0.000000,1772849382034.373,0.451243,-0.533144,0.325440,0.000000,0.000000,0.000000,1.000000,position_only
2026-03-07T02:09:42.050002+00:00,1772849382050.001,0.450684,-0.535156,0.325439,0.406982,0.039154,-1.271484,20128,19131,19910,18936,0.450000,-0.550000,0.300000,0.000000,1772849382042.882,0.451238,-0.533203,0.325429,0.000000,0.000000,0.000000,1.000000,position_only
2026-03-07T02:09:42.060565+00:00,1772849382060.564,0.450684,-0.535645,0.325439,0.409668,0.043213,-1.255859,20128,19131,19910,18936,0.450000,-0.550000,0.300000,0.000000,1772849382060.103,0.451255,-0.533329,0.325424,0.000000,0.000000,0.000000,1.000000,position_only
2026-03-07T02:09:42.069693+00:00,1772849382069.691,0.450684,-0.535645,0.325439,0.408691,0.035522,-1.242188,20128,19131,19910,18936,0.450000,-0.550000,0.300000,0.000000,1772849382068.588,0.451254,-0.533432,0.325406,0.000000,0.000000,0.000000,1.000000,position_only
2026-03-07T02:09:42.080216+00:00,1772849382080.214,0.450684,-0.535645,0.325439,0.395752,0.014702,-1.228516,20128,19131,19910,18936,0.450000,-0.550000,0.300000,0.000000,1772849382077.261,0.451251,-0.533501,0.325401,0.000000,0.000000,0.000000,1.000000,position_only
2026-03-07T02:09:42.089896+00:00,1772849382089.894,0.450684,-0.535645,0.325439,0.377441,-0.012672,-1.215820,20128,19131,19910,18936,0.450000,-0.550000,0.300000,0.000000,1772849382085.766,0.451267,-0.533538,0.325408,0.000000,0.000000,0.000000,1.000000,position_only
2026-03-07T02:09:42.100517+00:00,1772849382100.517,0.450684,-0.535645,0.325439,0.361328,-0.027832,-1.201172,20128,19131,19910,18936,0.450000,-0.550000,0.300000,0.000000,1772849382094.339,0.451292,-0.533593,0.325390,0.000000,0.000000,0.000000,1.000000,position_only
2026-03-07T02:09:42.110513+00:00,1772849382110.512,0.450684,-0.535645,0.325439,0.356201,-0.023560,-1.180664,20128,19131,19910,18936,0.450000,-0.550000,0.300000,0.000000,1772849382102.856,0.451296,-0.533659,0.325389,0.000000,0.000000,0.000000,1.000000,position_only
2026-03-07T02:09:42.119727+00:00,1772849382119.726,0.450684,-0.536133,0.325439,0.362305,0.001970,-1.154297,20128,19131,19910,18936,0.450000,-0.550000,0.300000,0.000000,1772849382111.431,0.451298,-0.533713,0.325380,0.000000,0.000000,0.000000,1.000000,position_only
2026-03-07T02:09:42.129811+00:00,1772849382129.810,0.450684,-0.536133,0.325439,0.361572,0.008095,-1.134766,20128,19131,19910,18936,0.450000,-0.550000,0.300000,0.000000,1772849382128.506,0.451338,-0.533844,0.325355,0.000000,0.000000,0.000000,1.000000,position_only
2026-03-07T02:09:42.140704+00:00,1772849382140.704,0.450684,-0.536133,0.325439,0.351318,-0.000099,-1.123047,20128,19131,19910,18936,0.450000,-0.550000,0.300000,0.000000,1772849382137.005,0.451357,-0.533925,0.325336,0.000000,0.000000,0.000000,1.000000,position_only
2026-03-07T02:09:42.150538+00:00,1772849382150.537,0.450684,-0.536133,0.325439,0.354248,0.012688,-1.103516,20128,19131,19910,18936,0.450000,-0.550000,0.300000,0.000000,1772849382145.771,0.451378,-0.534007,0.325326,0.000000,0.000000,0.000000,1.000000,position_only
2026-03-07T02:09:42.159604+00:00,1772849382159.603,0.450684,-0.536133,0.325439,0.346924,0.031403,-1.081055,20128,19131,19910,18936,0.450000,-0.550000,0.300000,0.000000,1772849382154.256,0.451380,-0.534114,0.325312,0.000000,0.000000,0.000000,1.000000,position_only
2026-03-07T02:09:42.170266+00:00,1772849382170.264,0.450684,-0.536133,0.325439,0.331299,0.034546,-1.065430,20128,19131,19910,18936,0.450000,-0.550000,0.300000,0.000000,1772849382162.823,0.451413,-0.534180,0.325287,0.000000,0.000000,0.000000,1.000000,position_only
2026-03-07T02:09:42.179500+00:00,1772849382179.499,0.450684,-0.536133,0.325439,0.326172,0.032379,-1.047852,20128,19131,19910,18936,0.450000,-0.550000,0.300000,0.000000,1772849382171.552,0.451477,-0.534351,0.325245,0.000000,0.000000,0.000000,1.000000,position_only
2026-03-07T02:09:42.189971+00:00,1772849382189.970,0.450684,-0.536621,0.325195,0.326904,0.037292,-1.031250,20128,19131,19910,18936,0.450000,-0.550000,0.300000,0.000000,1772849382188.599,0.451510,-0.534523,0.325218,0.000000,0.000000,0.000000,1.000000,position_only
2026-03-07T02:09:42.200588+00:00,1772849382200.587,0.450684,-0.536621,0.325195,0.331543,0.035248,-1.020508,20128,19131,19910,18936,0.450000,-0.550000,0.300000,0.000000,1772849382197.111,0.451537,-0.534609,0.325193,0.000000,0.000000,0.000000,1.000000,position_only
2026-03-07T02:09:42.210501+00:00,1772849382210.500,0.450684,-0.536621,0.325195,0.336914,0.033783,-1.015625,20128,19131,19910,18936,0.450000,-0.550000,0.300000,0.000000,1772849382205.921,0.451542,-0.534685,0.325186,0.000000,0.000000,0.000000,1.000000,position_only
2026-03-07T02:09:42.220738+00:00,1772849382220.737,0.450684,-0.536621,0.325195,0.336182,0.041504,-1.010742,20128,19131,19910,18936,0.450000,-0.550000,0.300000,0.000000,1772849382214.404,0.451565,-0.534759,0.325159,0.000000,0.000000,0.000000,1.000000,position_only
2026-03-07T02:09:42.230966+00:00,1772849382230.966,0.450928,-0.536621,0.325195,0.327881,0.053284,-0.988281,20128,19131,19910,18936,0.450000,-0.550000,0.300000,0.000000,1772849382222.910,0.451605,-0.534830,0.325146,0.000000,0.000000,0.000000,1.000000,position_only
2026-03-07T02:09:42.240667+00:00,1772849382240.666,0.450928,-0.537109,0.325195,0.311035,0.038269,-0.980957,20128,19131,19910,18936,0.450000,-0.550000,0.300000,0.000000,1772849382240.264,0.451655,-0.534993,0.325111,0.000000,0.000000,0.000000,1.000000,position_only
2026-03-07T02:09:42.249893+00:00,1772849382249.893,0.450928,-0.537109,0.325195,0.292480,0.010292,-0.986816,20128,19131,19910,18936,0.450000,-0.550000,0.300000,0.000000,1772849382248.791,0.451670,-0.535081,0.325098,0.000000,0.000000,0.000000,1.000000,position_only
2026-03-07T02:09:42.260567+00:00,1772849382260.566,0.450928,-0.537109,0.325195,0.285645,-0.004326,-0.990723,20128,19131,19910,18936,0.450000,-0.550000,0.300000,0.000000,1772849382257.365,0.451698,-0.535144,0.325083,0.000000,0.000000,0.000000,1.000000,position_only
2026-03-07T02:09:42.270478+00:00,1772849382270.478,0.450928,-0.537109,0.325195,0.288086,-0.008720,-0.975098,20128,19131,19910,18936,0.450000,-0.550000,0.300000,0.000000,1772849382265.902,0.451752,-0.535239,0.325076,0.000000,0.000000,0.000000,1.000000,position_only
2026-03-07T02:09:42.280677+00:00,1772849382280.676,0.450928,-0.537109,0.325195,0.288818,-0.016632,-0.961914,20128,19131,19910,18936,0.450000,-0.550000,0.300000,0.000000,1772849382274.381,0.451775,-0.535335,0.325045,0.000000,0.000000,0.000000,1.000000,position_only
2026-03-07T02:09:42.290304+00:00,1772849382290.302,0.450928,-0.537109,0.325195,0.299805,0.000215,-0.958984,20128,19131,19910,18936,0.450000,-0.550000,0.300000,0.000000,1772849382282.849,0.451803,-0.535445,0.325032,0.000000,0.000000,0.000000,1.000000,position_only
2026-03-07T02:09:42.300927+00:00,1772849382300.927,0.451172,-0.537598,0.325195,0.291992,0.006451,-0.949707,20128,19131,19910,18936,0.450000,-0.550000,0.300000,0.000000,1772849382299.922,0.451845,-0.535608,0.324978,0.000000,0.000000,0.000000,1.000000,position_only
2026-03-07T02:09:42.309788+00:00,1772849382309.788,0.451172,-0.537598,0.324951,0.270752,0.011864,-0.937012,20128,19131,19910,18936,0.450000,-0.550000,0.300000,0.000000,1772849382308.411,0.451872,-0.535703,0.324946,0.000000,0.000000,0.000000,1.000000,position_only
2026-03-07T02:09:42.320225+00:00,1772849382320.225,0.451172,-0.537598,0.324951,0.254395,0.023682,-0.929688,20128,19131,19910,18936,0.450000,-0.550000,0.300000,0.000000,1772849382316.904,0.451905,-0.535795,0.324936,0.000000,0.000000,0.000000,1.000000,position_only
2026-03-07T02:09:42.330678+00:00,1772849382330.678,0.451172,-0.537598,0.324951,0.232178,0.035675,-0.928711,20128,19131,19910,18936,0.450000,-0.550000,0.300000,0.000000,1772849382325.395,0.451919,-0.535920,0.324883,0.000000,0.000000,0.000000,1.000000,position_only
2026-03-07T02:09:42.340585+00:00,1772849382340.585,0.451172,-0.537598,0.324951,0.222656,0.055115,-0.926758,20128,19131,19910,18936,0.450000,-0.550000,0.300000,0.000000,1772849382333.902,0.451935,-0.535995,0.324861,0.000000,0.000000,0.000000,1.000000,position_only
2026-03-07T02:09:42.350315+00:00,1772849382350.314,0.451172,-0.538086,0.324951,0.233643,0.095520,-0.919434,20128,19131,19910,18936,0.450000,-0.550000,0.300000,0.000000,1772849382342.473,0.451980,-0.536068,0.324810,0.000000,0.000000,0.000000,1.000000,position_only
2026-03-07T02:09:42.360862+00:00,1772849382360.862,0.451416,-0.538086,0.324951,0.240112,0.100647,-0.919922,20128,19131,19910,18936,0.450000,-0.550000,0.300000,0.000000,1772849382359.420,0.452064,-0.536266,0.324746,0.000000,0.000000,0.000000,1.000000,position_only
2026-03-07T02:09:42.370651+00:00,1772849382370.650,0.451416,-0.538086,0.324951,0.234985,0.087891,-0.920410,20128,19131,19910,18936,0.450000,-0.550000,0.300000,0.000000,1772849382367.875,0.452085,-0.536368,0.324719,0.000000,0.000000,0.000000,1.000000,position_only
2026-03-07T02:09:42.380664+00:00,1772849382380.663,0.451416,-0.538086,0.324951,0.230347,0.087280,-0.915527,20128,19131,19910,18936,0.450000,-0.550000,0.300000,0.000000,1772849382376.499,0.452124,-0.536454,0.324687,0.000000,0.000000,0.000000,1.000000,position_only
2026-03-07T02:09:42.390722+00:00,1772849382390.721,0.451416,-0.538086,0.324707,0.232788,0.088013,-0.912598,20128,19131,19910,18936,0.450000,-0.550000,0.300000,0.000000,1772849382384.960,0.452158,-0.536547,0.324666,0.000000,0.000000,0.000000,1.000000,position_only
2026-03-07T02:09:42.400739+00:00,1772849382400.738,0.451416,-0.538574,0.324707,0.233276,0.082764,-0.918945,20128,19131,19910,18936,0.450000,-0.550000,0.300000,0.000000,1772849382393.530,0.452185,-0.536638,0.324632,0.000000,0.000000,0.000000,1.000000,position_only
2026-03-07T02:09:42.411253+00:00,1772849382411.252,0.451660,-0.538574,0.324707,0.225342,0.067932,-0.931152,20128,19131,19910,18936,0.450000,-0.550000,0.300000,0.000000,1772849382410.529,0.452292,-0.536809,0.324579,0.000000,0.000000,0.000000,1.000000,position_only
2026-03-07T02:09:42.420594+00:00,1772849382420.593,0.451660,-0.538574,0.324707,0.225098,0.064636,-0.932129,20128,19131,19910,18936,0.450000,-0.550000,0.300000,0.000000,1772849382419.057,0.452325,-0.536903,0.324558,0.000000,0.000000,0.000000,1.000000,position_only
2026-03-07T02:09:42.430954+00:00,1772849382430.954,0.451660,-0.538574,0.324707,0.228149,0.072327,-0.927246,20128,19131,19910,18936,0.450000,-0.550000,0.300000,0.000000,1772849382427.530,0.452333,-0.536985,0.324521,0.000000,0.000000,0.000000,1.000000,position_only
2026-03-07T02:09:42.440794+00:00,1772849382440.793,0.451660,-0.538574,0.324707,0.222168,0.063965,-0.932617,20128,19131,19910,18936,0.450000,-0.550000,0.300000,0.000000,1772849382436.081,0.452374,-0.537068,0.324497,0.000000,0.000000,0.000000,1.000000,position_only
2026-03-07T02:09:42.450743+00:00,1772849382450.742,0.451660,-0.538574,0.324463,0.206543,0.044067,-0.939941,20128,19131,19910,18936,0.450000,-0.550000,0.300000,0.000000,1772849382444.530,0.452434,-0.537127,0.324470,0.000000,0.000000,0.000000,1.000000,position_only
2026-03-07T02:09:42.461298+00:00,1772849382461.296,0.451904,-0.539062,0.324463,0.201416,0.031952,-0.941895,20128,19131,19910,18936,0.450000,-0.550000,0.300000,0.000000,1772849382453.037,0.452468,-0.537219,0.324450,0.000000,0.000000,0.000000,1.000000,position_only
2026-03-07T02:09:42.471118+00:00,1772849382471.117,0.451904,-0.539062,0.324463,0.205444,0.031128,-0.940430,20128,19131,19910,18936,0.450000,-0.550000,0.300000,0.000000,1772849382470.010,0.452513,-0.537388,0.324393,0.000000,0.000000,0.000000,1.000000,position_only
2026-03-07T02:09:42.481183+00:00,1772849382481.181,0.451904,-0.539062,0.324463,0.206909,0.029495,-0.948242,20128,19131,19910,18936,0.450000,-0.550000,0.300000,0.000000,1772849382478.530,0.452599,-0.537489,0.324357,0.000000,0.000000,0.000000,1.000000,position_only
2026-03-07T02:09:42.490696+00:00,1772849382490.695,0.451904,-0.539062,0.324463,0.200562,0.021179,-0.955078,20128,19131,19910,18936,0.450000,-0.550000,0.300000,0.000000,1772849382487.051,0.452666,-0.537595,0.324320,0.000000,0.000000,0.000000,1.000000,position_only
2026-03-07T02:09:42.501433+00:00,1772849382501.433,0.451904,-0.539551,0.324463,0.193726,0.018494,-0.957520,19234,19628,19180,19635,0.450000,-0.550000,0.300000,0.000000,1772849382495.880,0.452728,-0.537726,0.324271,0.000000,0.000000,0.000000,1.000000,position_only
2026-03-07T02:09:42.511983+00:00,1772849382511.982,0.452148,-0.539551,0.324463,0.186523,0.029312,-0.957031,19184,19708,19251,19545,0.450000,-0.550000,0.300000,0.000000,1772849382504.398,0.452766,-0.537811,0.324239,0.000000,0.000000,0.000000,1.000000,position_only
2026-03-07T02:09:42.520970+00:00,1772849382520.970,0.452148,-0.539551,0.324219,0.188599,0.072266,-0.959961,18959,19968,19038,19749,0.450000,-0.550000,0.300000,0.000000,1772849382513.038,0.452856,-0.537980,0.324191,0.000000,0.000000,0.000000,1.000000,position_only
2026-03-07T02:09:42.530970+00:00,1772849382530.970,0.452148,-0.539551,0.324219,0.199829,0.131104,-0.986328,18665,20307,18802,19978,0.450000,-0.550000,0.300000,0.000000,1772849382530.024,0.452907,-0.538142,0.324089,0.000000,0.000000,0.000000,1.000000,position_only
2026-03-07T02:09:42.542159+00:00,1772849382542.158,0.452148,-0.539551,0.324219,0.219116,0.204590,-1.023438,18779,20201,18942,19858,0.450000,-0.550000,0.300000,0.000000,1772849382538.529,0.452910,-0.538234,0.324048,0.000000,0.000000,0.000000,1.000000,position_only
2026-03-07T02:09:42.553431+00:00,1772849382553.431,0.452393,-0.540039,0.323975,0.231812,0.284668,-1.060547,18895,20117,19134,19667,0.450000,-0.550000,0.300000,0.000000,1772849382547.006,0.452914,-0.538315,0.323976,0.000000,0.000000,0.000000,1.000000,position_only
2026-03-07T02:09:42.561084+00:00,1772849382561.083,0.452393,-0.539551,0.323975,0.231812,0.284668,-1.060547,18904,20128,19195,19588,0.450000,-0.550000,0.300000,0.000000,1772849382555.588,0.452905,-0.538389,0.323937,0.000000,0.000000,0.000000,1.000000,position_only
2026-03-07T02:09:42.570893+00:00,1772849382570.893,0.452393,-0.540039,0.323975,0.248413,0.383789,-1.077148,18831,20211,19166,19636,0.450000,-0.550000,0.300000,0.000000,1772849382564.078,0.452896,-0.538483,0.323861,0.000000,0.000000,0.000000,1.000000,position_only
2026-03-07T02:09:42.582122+00:00,1772849382582.121,0.452393,-0.540039,0.323975,0.277588,0.519043,-1.094727,18689,20379,18965,19844,0.450000,-0.550000,0.300000,0.000000,1772849382581.616,0.452863,-0.538675,0.323649,0.000000,0.000000,0.000000,1.000000,position_only
2026-03-07T02:09:42.591399+00:00,1772849382591.398,0.452393,-0.540039,0.323730,0.321289,0.736816,-1.148438,18827,20282,19223,19634,0.450000,-0.550000,0.300000,0.000000,1772849382590.256,0.452838,-0.538775,0.323509,0.000000,0.000000,0.000000,1.000000,position_only
2026-03-07T02:09:42.600478+00:00,1772849382600.478,0.452393,-0.540039,0.323730,0.321289,0.736816,-1.148438,18755,20315,19063,19836,0.450000,-0.550000,0.300000,0.000000,1772849382598.792,0.452807,-0.538880,0.323367,0.000000,0.000000,0.000000,1.000000,position_only
2026-03-07T02:09:42.612935+00:00,1772849382612.934,0.452393,-0.540527,0.323486,0.336670,0.839355,-1.167969,18672,20414,18991,19936,0.450000,-0.550000,0.300000,0.000000,1772849382607.270,0.452767,-0.538970,0.323213,0.000000,0.000000,0.000000,1.000000,position_only
2026-03-07T02:09:42.621823+00:00,1772849382621.823,0.452393,-0.540527,0.323242,0.345703,0.923340,-1.198242,18717,20379,19031,19932,0.450000,-0.550000,0.300000,0.000000,1772849382615.706,0.452744,-0.539051,0.323066,0.000000,0.000000,0.000000,1.000000,position_only
2026-03-07T02:09:42.633244+00:00,1772849382633.243,0.452393,-0.540527,0.323242,0.345703,0.987305,-1.233398,18801,20309,19073,19926,0.450000,-0.550000,0.300000,0.000000,1772849382632.704,0.452645,-0.539263,0.322712,0.000000,0.000000,0.000000,1.000000,position_only
2026-03-07T02:09:42.641501+00:00,1772849382641.501,0.452393,-0.540527,0.322998,0.343994,1.025391,-1.262695,18914,20194,19140,19907,0.450000,-0.550000,0.300000,0.000000,1772849382641.282,0.452571,-0.539344,0.322528,0.000000,0.000000,0.000000,1.000000,position_only
2026-03-07T02:09:42.650449+00:00,1772849382650.448,0.452393,-0.540527,0.322754,0.332031,1.047852,-1.291992,18809,20343,19007,20050,0.450000,-0.550000,0.300000,0.000000,1772849382649.778,0.452506,-0.539426,0.322322,0.000000,0.000000,0.000000,1.000000,position_only
2026-03-07T02:09:42.663255+00:00,1772849382663.254,0.452148,-0.541016,0.322510,0.317871,1.055664,-1.322266,18885,20297,19046,20041,0.450000,-0.550000,0.300000,0.000000,1772849382658.416,0.452445,-0.539509,0.322137,0.000000,0.000000,0.000000,1.000000,position_only
2026-03-07T02:09:42.672418+00:00,1772849382672.417,0.452148,-0.541016,0.322266,0.308105,1.037109,-1.356445,18896,20308,19001,20106,0.450000,-0.550000,0.300000,0.000000,1772849382666.907,0.452356,-0.539588,0.321973,0.000000,0.000000,0.000000,1.000000,position_only
2026-03-07T02:09:42.681630+00:00,1772849382681.629,0.451904,-0.541016,0.322021,0.295410,1.001953,-1.390625,18910,20327,18959,20160,0.450000,-0.550000,0.300000,0.000000,1772849382675.395,0.452255,-0.539673,0.321752,0.000000,0.000000,0.000000,1.000000,position_only
2026-03-07T02:09:42.691170+00:00,1772849382691.169,0.451904,-0.541016,0.321533,0.290039,0.956055,-1.425781,19117,20163,19208,19906,0.450000,-0.550000,0.300000,0.000000,1772849382683.881,0.452146,-0.539788,0.321495,0.000000,0.000000,0.000000,1.000000,position_only
2026-03-07T02:09:42.702485+00:00,1772849382702.484,0.451660,-0.541504,0.321289,0.288818,0.921875,-1.447266,18900,20368,18894,20266,0.450000,-0.550000,0.300000,0.000000,1772849382701.049,0.451937,-0.539953,0.321022,0.000000,0.000000,0.000000,1.000000,position_only
2026-03-07T02:09:42.712330+00:00,1772849382712.329,0.451416,-0.541504,0.321045,0.282471,0.856934,-1.492188,18939,20379,18954,20200,0.450000,-0.550000,0.300000,0.000000,1772849382709.529,0.451793,-0.540069,0.320758,0.000000,0.000000,0.000000,1.000000,position_only
2026-03-07T02:09:42.721534+00:00,1772849382721.534,0.451416,-0.541504,0.320801,0.280029,0.803711,-1.531250,19045,20308,19074,20080,0.450000,-0.550000,0.300000,0.000000,1772849382718.015,0.451622,-0.540199,0.320474,0.000000,0.000000,0.000000,1.000000,position_only
2026-03-07T02:09:42.733250+00:00,1772849382733.250,0.451172,-0.541504,0.320312,0.284180,0.760742,-1.562500,19078,20302,19191,19975,0.450000,-0.550000,0.300000,0.000000,1772849382726.564,0.451485,-0.540292,0.320216,0.000000,0.000000,0.000000,1.000000,position_only
2026-03-07T02:09:42.741681+00:00,1772849382741.680,0.450928,-0.541992,0.320068,0.287598,0.747559,-1.582031,19052,20381,19169,19988,0.450000,-0.550000,0.300000,0.000000,1772849382735.056,0.451314,-0.540382,0.319968,0.000000,0.000000,0.000000,1.000000,position_only
2026-03-07T02:09:42.751083+00:00,1772849382751.083,0.450684,-0.541992,0.319824,0.302979,0.745605,-1.604492,19026,20425,19241,19933,0.450000,-0.550000,0.300000,0.000000,1772849382743.669,0.451124,-0.540526,0.319697,0.000000,0.000000,0.000000,1.000000,position_only
2026-03-07T02:09:42.761689+00:00,1772849382761.689,0.450439,-0.541992,0.319336,0.317139,0.769043,-1.627930,18979,20468,19213,20004,0.450000,-0.550000,0.300000,0.000000,1772849382760.684,0.450763,-0.540730,0.319124,0.000000,0.000000,0.000000,1.000000,position_only
2026-03-07T02:09:42.772438+00:00,1772849382772.438,0.450195,-0.541992,0.319092,0.323975,0.791016,-1.655273,18969,20491,19222,20022,0.450000,-0.550000,0.300000,0.000000,1772849382769.219,0.450561,-0.540848,0.318811,0.000000,0.000000,0.000000,1.000000,position_only
2026-03-07T02:09:42.782319+00:00,1772849382782.318,0.449951,-0.542480,0.318604,0.333252,0.821777,-1.680664,19057,20463,19311,19916,0.450000,-0.550000,0.300000,0.000000,1772849382777.757,0.450333,-0.540948,0.318490,0.000000,0.000000,0.000000,1.000000,position_only
2026-03-07T02:09:42.792103+00:00,1772849382792.103,0.449707,-0.542480,0.318359,0.348145,0.854004,-1.698242,19026,20478,19322,19964,0.450000,-0.550000,0.300000,0.000000,1772849382786.303,0.450056,-0.541063,0.318202,0.000000,0.000000,0.000000,1.000000,position_only
2026-03-07T02:09:42.802676+00:00,1772849382802.676,0.449463,-0.542480,0.317871,0.349365,0.873535,-1.720703,19027,20508,19309,19979,0.450000,-0.550000,0.300000,0.000000,1772849382794.790,0.449841,-0.541193,0.317903,0.000000,0.000000,0.000000,1.000000,position_only
2026-03-07T02:09:42.812518+00:00,1772849382812.518,0.448975,-0.542480,0.317383,0.352539,0.886719,-1.743164,19005,20524,19232,20088,0.450000,-0.550000,0.300000,0.000000,1772849382811.925,0.449391,-0.541385,0.317301,0.000000,0.000000,0.000000,1.000000,position_only
2026-03-07T02:09:42.822446+00:00,1772849382822.445,0.448730,-0.542969,0.317139,0.344727,0.855957,-1.775391,19133,20394,19242,20115,0.450000,-0.550000,0.300000,0.000000,1772849382820.530,0.449099,-0.541460,0.316994,0.000000,0.000000,0.000000,1.000000,position_only
2026-03-07T02:09:42.832268+00:00,1772849382832.268,0.448486,-0.542969,0.316650,0.339600,0.807129,-1.798828,19190,20383,19279,20050,0.450000,-0.550000,0.300000,0.000000,1772849382829.010,0.448869,-0.541530,0.316665,0.000000,0.000000,0.000000,1.000000,position_only
2026-03-07T02:09:42.843510+00:00,1772849382843.510,0.447998,-0.542969,0.316162,0.336670,0.749512,-1.816406,19153,20365,19185,20203,0.450000,-0.550000,0.300000,0.000000,1772849382837.587,0.448636,-0.541666,0.316357,0.000000,0.000000,0.000000,1.000000,position_only
2026-03-07T02:09:42.852497+00:00,1772849382852.496,0.447998,-0.542969,0.316162,0.336670,0.749512,-1.816406,19177,20387,19143,20199,0.450000,-0.550000,0.300000,0.000000,1772849382846.152,0.448378,-0.541786,0.316079,0.000000,0.000000,0.000000,1.000000,position_only
2026-03-07T02:09:42.862349+00:00,1772849382862.348,0.447266,-0.543457,0.315430,0.319092,0.574707,-1.864258,19333,20259,19183,20166,0.450000,-0.550000,0.300000,0.000000,1772849382854.642,0.447989,-0.541937,0.315711,0.000000,0.000000,0.000000,1.000000,position_only
2026-03-07T02:09:42.872128+00:00,1772849382872.127,0.447266,-0.543457,0.315430,0.319092,0.574707,-1.864258,19344,20276,19195,20131,0.450000,-0.550000,0.300000,0.000000,1772849382871.648,0.447154,-0.542317,0.314813,0.000000,0.000000,0.000000,1.000000,position_only
2026-03-07T02:09:42.883101+00:00,1772849382883.100,0.447021,-0.543457,0.314941,0.323486,0.459717,-1.887695,19483,20170,19350,19955,0.450000,-0.550000,0.300000,0.000000,1772849382880.175,0.446870,-0.542439,0.314489,0.000000,0.000000,0.000000,1.000000,position_only
2026-03-07T02:09:42.892707+00:00,1772849382892.706,0.446533,-0.543457,0.314697,0.337402,0.366455,-1.899414,19291,20412,19158,20113,0.450000,-0.550000,0.300000,0.000000,1772849382888.645,0.446599,-0.542556,0.314168,0.000000,0.000000,0.000000,1.000000,position_only
2026-03-07T02:09:42.903244+00:00,1772849382903.244,0.446045,-0.543457,0.314209,0.365723,0.285400,-1.916992,19454,20263,19318,19956,0.450000,-0.550000,0.300000,0.000000,1772849382897.137,0.446317,-0.542659,0.313825,0.000000,0.000000,0.000000,1.000000,position_only
2026-03-07T02:09:42.912313+00:00,1772849382912.313,0.445801,-0.543945,0.313721,0.396729,0.223022,-1.931641,19199,20545,19101,20160,0.450000,-0.550000,0.300000,0.000000,1772849382905.596,0.445997,-0.542823,0.313508,0.000000,0.000000,0.000000,1.000000,position_only
2026-03-07T02:09:42.922924+00:00,1772849382922.923,0.445312,-0.543945,0.313477,0.429932,0.174683,-1.951172,19313,20467,19233,20004,0.450000,-0.550000,0.300000,0.000000,1772849382922.601,0.445373,-0.543026,0.312930,0.000000,0.000000,0.000000,1.000000,position_only
2026-03-07T02:09:42.933318+00:00,1772849382933.317,0.444824,-0.544434,0.312988,0.465088,0.144287,-1.971680,19259,20494,19272,20005,0.450000,-0.550000,0.300000,0.000000,1772849382931.114,0.445042,-0.543182,0.312580,0.000000,0.000000,0.000000,1.000000,position_only
2026-03-07T02:09:42.942502+00:00,1772849382942.501,0.444580,-0.544434,0.312500,0.492676,0.138672,-1.987305,19217,20527,19285,20002,0.450000,-0.550000,0.300000,0.000000,1772849382939.590,0.444686,-0.543389,0.312261,0.000000,0.000000,0.000000,1.000000,position_only
2026-03-07T02:09:42.952241+00:00,1772849382952.241,0.444092,-0.544434,0.312256,0.512207,0.145996,-2.003906,19113,20625,19213,20100,0.450000,-0.550000,0.300000,0.000000,1772849382948.190,0.444382,-0.543556,0.311952,0.000000,0.000000,0.000000,1.000000,position_only
2026-03-07T02:09:42.963554+00:00,1772849382963.553,0.443604,-0.544922,0.311768,0.525879,0.158325,-2.023438,19209,20501,19323,20038,0.450000,-0.550000,0.300000,0.000000,1772849382956.681,0.444074,-0.543702,0.311659,0.000000,0.000000,0.000000,1.000000,position_only
2026-03-07T02:09:42.972771+00:00,1772849382972.770,0.443359,-0.544922,0.311523,0.527344,0.170044,-2.037109,18996,20710,19159,20215,0.450000,-0.550000,0.300000,0.000000,1772849382965.169,0.444074,-0.543702,0.311659,0.000000,0.000000,0.000000,1.000000,position_only
2026-03-07T02:09:42.981770+00:00,1772849382981.769,0.442871,-0.544922,0.311035,0.524902,0.182861,-2.058594,19229,20507,19404,19939,0.450000,-0.550000,0.300000,0.000000,1772849382973.887,0.443388,-0.543959,0.311131,0.000000,0.000000,0.000000,1.000000,position_only
2026-03-07T02:09:42.991563+00:00,1772849382991.562,0.442383,-0.545410,0.310791,0.523438,0.208130,-2.068359,19176,20495,19379,20028,0.450000,-0.550000,0.300000,0.000000,1772849382990.938,0.442710,-0.544180,0.310528,0.000000,0.000000,0.000000,1.000000,position_only
2026-03-07T02:09:43.002834+00:00,1772849383002.834,0.442139,-0.545410,0.310303,0.504395,0.215942,-2.080078,19194,20492,19395,19997,0.450000,-0.550000,0.300000,0.000000,1772849382999.441,0.442383,-0.544355,0.310234,0.000000,0.000000,0.000000,1.000000,position_only
2026-03-07T02:09:43.014894+00:00,1772849383014.893,0.441650,-0.545898,0.310059,0.487305,0.225464,-2.095703,19237,20429,19411,20001,0.450000,-0.550000,0.300000,0.000000,1772849383007.972,0.442085,-0.544526,0.309965,0.000000,0.000000,0.000000,1.000000,position_only
2026-03-07T02:09:43.024061+00:00,1772849383024.061,0.441162,-0.545898,0.309570,0.465820,0.216919,-2.107422,19226,20409,19346,20097,0.450000,-0.550000,0.300000,0.000000,1772849383016.476,0.441747,-0.544678,0.309673,0.000000,0.000000,0.000000,1.000000,position_only
2026-03-07T02:09:43.032561+00:00,1772849383032.560,0.440674,-0.545898,0.309326,0.429932,0.180176,-2.123047,19211,20411,19316,20138,0.450000,-0.550000,0.300000,0.000000,1772849383024.955,0.441413,-0.544828,0.309358,0.000000,0.000000,0.000000,1.000000,position_only
2026-03-07T02:09:43.043048+00:00,1772849383043.047,0.440430,-0.546387,0.308838,0.394287,0.133057,-2.140625,19191,20459,19215,20200,0.450000,-0.550000,0.300000,0.000000,1772849383041.940,0.440735,-0.545155,0.308818,0.000000,0.000000,0.000000,1.000000,position_only
2026-03-07T02:09:43.053687+00:00,1772849383053.687,0.439941,-0.546387,0.308594,0.366943,0.070251,-2.162109,19209,20411,19159,20291,0.450000,-0.550000,0.300000,0.000000,1772849383050.547,0.440424,-0.545283,0.308590,0.000000,0.000000,0.000000,1.000000,position_only
2026-03-07T02:09:43.062468+00:00,1772849383062.468,0.439453,-0.546875,0.308350,0.336426,-0.016159,-2.181641,19357,20345,19219,20164,0.450000,-0.550000,0.300000,0.000000,1772849383059.057,0.440116,-0.545455,0.308339,0.000000,0.000000,0.000000,1.000000,position_only
2026-03-07T02:09:43.073399+00:00,1772849383073.398,0.439453,-0.546875,0.308350,0.336426,-0.016159,-2.181641,19521,20142,19332,20088,0.450000,-0.550000,0.300000,0.000000,1772849383067.586,0.439777,-0.545653,0.308070,0.000000,0.000000,0.000000,1.000000,position_only
2026-03-07T02:09:43.084216+00:00,1772849383084.215,0.438965,-0.546875,0.307861,0.321289,-0.121399,-2.193359,19267,20422,19040,20374,0.450000,-0.550000,0.300000,0.000000,1772849383076.163,0.439486,-0.545796,0.307817,0.000000,0.000000,0.000000,1.000000,position_only
2026-03-07T02:09:43.093631+00:00,1772849383093.631,0.438232,-0.547363,0.307373,0.284912,-0.349609,-2.232422,19348,20381,19044,20342,0.450000,-0.550000,0.300000,0.000000,1772849383093.259,0.438905,-0.546122,0.307268,0.000000,0.000000,0.000000,1.000000,position_only
2026-03-07T02:09:43.102968+00:00,1772849383102.968,0.438232,-0.547363,0.307373,0.284912,-0.349609,-2.232422,19483,20253,19157,20223,0.450000,-0.550000,0.300000,0.000000,1772849383101.942,0.438593,-0.546345,0.306995,0.000000,0.000000,0.000000,1.000000,position_only
2026-03-07T02:09:43.111639+00:00,1772849383111.637,0.437988,-0.547363,0.306885,0.275391,-0.479492,-2.255859,19558,20231,19254,20065,0.450000,-0.550000,0.300000,0.000000,1772849383110.531,0.438289,-0.546508,0.306698,0.000000,0.000000,0.000000,1.000000,position_only
2026-03-07T02:09:43.122685+00:00,1772849383122.685,0.437500,-0.547852,0.306641,0.279541,-0.579102,-2.267578,19538,20268,19260,20058,0.450000,-0.550000,0.300000,0.000000,1772849383119.147,0.438012,-0.546672,0.306420,0.000000,0.000000,0.000000,1.000000,position_only
2026-03-07T02:09:43.133405+00:00,1772849383133.405,0.437012,-0.547852,0.306396,0.294434,-0.658691,-2.271484,19299,20532,19067,20236,0.450000,-0.550000,0.300000,0.000000,1772849383127.646,0.437739,-0.546812,0.306169,0.000000,0.000000,0.000000,1.000000,position_only
2026-03-07T02:09:43.142462+00:00,1772849383142.462,0.436768,-0.548340,0.306152,0.316406,-0.701172,-2.289062,19408,20436,19247,20046,0.450000,-0.550000,0.300000,0.000000,1772849383136.129,0.437469,-0.547000,0.305923,0.000000,0.000000,0.000000,1.000000,position_only
2026-03-07T02:09:43.151539+00:00,1772849383151.539,0.436523,-0.548340,0.305664,0.336914,-0.729004,-2.306641,19493,20355,19359,19937,0.450000,-0.550000,0.300000,0.000000,1772849383144.718,0.437202,-0.547158,0.305686,0.000000,0.000000,0.000000,1.000000,position_only
2026-03-07T02:09:43.162729+00:00,1772849383162.728,0.436035,-0.548828,0.305420,0.358154,-0.731934,-2.304688,19283,20558,19153,20159,0.450000,-0.550000,0.300000,0.000000,1772849383161.642,0.436675,-0.547526,0.305212,0.000000,0.000000,0.000000,1.000000,position_only
2026-03-07T02:09:43.173375+00:00,1772849383173.375,0.435791,-0.548828,0.305176,0.376221,-0.724609,-2.320312,19445,20345,19471,19894,0.450000,-0.550000,0.300000,0.000000,1772849383170.220,0.436378,-0.547729,0.304949,0.000000,0.000000,0.000000,1.000000,position_only
2026-03-07T02:09:43.182588+00:00,1772849383182.588,0.435547,-0.549316,0.304932,0.376953,-0.695801,-2.322266,19337,20445,19459,19915,0.450000,-0.550000,0.300000,0.000000,1772849383178.978,0.436118,-0.547937,0.304711,0.000000,0.000000,0.000000,1.000000,position_only
2026-03-07T02:09:43.193777+00:00,1772849383193.777,0.435303,-0.549316,0.304443,0.366943,-0.649902,-2.320312,19258,20497,19408,19982,0.450000,-0.550000,0.300000,0.000000,1772849383187.760,0.435853,-0.548148,0.304452,0.000000,0.000000,0.000000,1.000000,position_only
2026-03-07T02:09:43.202697+00:00,1772849383202.697,0.435059,-0.549805,0.304199,0.353271,-0.583008,-2.324219,19165,20580,19352,20036,0.450000,-0.550000,0.300000,0.000000,1772849383196.327,0.435625,-0.548302,0.304243,0.000000,0.000000,0.000000,1.000000,position_only
2026-03-07T02:09:43.213548+00:00,1772849383213.548,0.434814,-0.549805,0.303955,0.337158,-0.516602,-2.330078,19226,20476,19451,19995,0.450000,-0.550000,0.300000,0.000000,1772849383205.080,0.435144,-0.548682,0.303800,0.000000,0.000000,0.000000,1.000000,position_only
2026-03-07T02:09:43.222718+00:00,1772849383222.718,0.434570,-0.550293,0.303711,0.304688,-0.447021,-2.332031,19186,20537,19438,19987,0.450000,-0.550000,0.300000,0.000000,1772849383222.239,0.434726,-0.549018,0.303347,0.000000,0.000000,0.000000,1.000000,position_only
2026-03-07T02:09:43.231798+00:00,1772849383231.798,0.434326,-0.550293,0.303467,0.276855,-0.384521,-2.337891,19204,20523,19418,20002,0.450000,-0.550000,0.300000,0.000000,1772849383230.783,0.434528,-0.549183,0.303126,0.000000,0.000000,0.000000,1.000000,position_only
2026-03-07T02:09:43.243040+00:00,1772849383243.040,0.433838,-0.550781,0.303223,0.245239,-0.331299,-2.339844,19225,20497,19401,20037,0.450000,-0.550000,0.300000,0.000000,1772849383239.427,0.434307,-0.549400,0.302871,0.000000,0.000000,0.000000,1.000000,position_only
2026-03-07T02:09:43.253518+00:00,1772849383253.518,0.433594,-0.550781,0.302734,0.214844,-0.294922,-2.345703,19250,20457,19451,20007,0.450000,-0.550000,0.300000,0.000000,1772849383247.982,0.434096,-0.549561,0.302642,0.000000,0.000000,0.000000,1.000000,position_only
2026-03-07T02:09:43.261900+00:00,1772849383261.899,0.433594,-0.551270,0.302490,0.175171,-0.262695,-2.349609,19298,20386,19495,19982,0.450000,-0.550000,0.300000,0.000000,1772849383256.546,0.433901,-0.549694,0.302459,0.000000,0.000000,0.000000,1.000000,position_only
2026-03-07T02:09:43.273179+00:00,1772849383273.179,0.433350,-0.551270,0.302246,0.137939,-0.243652,-2.347656,19384,20294,19515,19969,0.450000,-0.550000,0.300000,0.000000,1772849383265.125,0.433716,-0.549839,0.302260,0.000000,0.000000,0.000000,1.000000,position_only
2026-03-07T02:09:43.283033+00:00,1772849383283.033,0.433105,-0.551758,0.302002,0.097168,-0.253418,-2.351562,19300,20373,19362,20117,0.450000,-0.550000,0.300000,0.000000,1772849383282.534,0.433332,-0.550248,0.301822,0.000000,0.000000,0.000000,1.000000,position_only
2026-03-07T02:09:43.292776+00:00,1772849383292.776,0.432861,-0.551758,0.301758,0.061310,-0.288574,-2.357422,19341,20346,19367,20089,0.450000,-0.550000,0.300000,0.000000,1772849383291.300,0.433170,-0.550407,0.301624,0.000000,0.000000,0.000000,1.000000,position_only
2026-03-07T02:09:43.302956+00:00,1772849383302.956,0.432617,-0.552246,0.301514,0.031372,-0.330322,-2.367188,19247,20433,19141,20327,0.450000,-0.550000,0.300000,0.000000,1772849383300.125,0.433005,-0.550570,0.301421,0.000000,0.000000,0.000000,1.000000,position_only
2026-03-07T02:09:43.314475+00:00,1772849383314.475,0.432617,-0.551758,0.301514,0.031372,-0.330322,-2.367188,19315,20402,19196,20237,0.450000,-0.550000,0.300000,0.000000,1772849383308.685,0.432845,-0.550725,0.301222,0.000000,0.000000,0.000000,1.000000,position_only
2026-03-07T02:09:43.323520+00:00,1772849383323.520,0.432373,-0.552246,0.301270,0.005695,-0.397217,-2.388672,19451,20286,19285,20131,0.450000,-0.550000,0.300000,0.000000,1772849383317.237,0.432700,-0.550903,0.301023,0.000000,0.000000,0.000000,1.000000,position_only
2026-03-07T02:09:43.333522+00:00,1772849383333.522,0.432373,-0.552246,0.301025,-0.011024,-0.461182,-2.402344,19577,20234,19261,20083,0.450000,-0.550000,0.300000,0.000000,1772849383326.071,0.432551,-0.551070,0.300808,0.000000,0.000000,0.000000,1.000000,position_only
2026-03-07T02:09:43.343321+00:00,1772849383343.321,0.432129,-0.552734,0.300781,-0.004871,-0.528809,-2.406250,19521,20354,19148,20133,0.450000,-0.550000,0.300000,0.000000,1772849383343.204,0.432306,-0.551364,0.300466,0.000000,0.000000,0.000000,1.000000,position_only
2026-03-07T02:09:43.352475+00:00,1772849383352.474,0.431885,-0.552734,0.300537,0.016632,-0.626953,-2.416016,19554,20288,19186,20113,0.450000,-0.550000,0.300000,0.000000,1772849383351.726,0.432205,-0.551511,0.300303,0.000000,0.000000,0.000000,1.000000,position_only
2026-03-07T02:09:43.362943+00:00,1772849383362.942,0.431641,-0.553223,0.300293,0.045410,-0.700684,-2.421875,19355,20464,18964,20352,0.450000,-0.550000,0.300000,0.000000,1772849383360.488,0.432125,-0.551637,0.300143,0.000000,0.000000,0.000000,1.000000,position_only
2026-03-07T02:09:43.372679+00:00,1772849383372.679,0.431641,-0.553223,0.300049,0.065918,-0.776367,-2.445312,19605,20221,19251,20049,0.450000,-0.550000,0.300000,0.000000,1772849383369.066,0.432074,-0.551768,0.299956,0.000000,0.000000,0.000000,1.000000,position_only
2026-03-07T02:09:43.384727+00:00,1772849383384.726,0.431396,-0.553223,0.300049,0.082886,-0.852051,-2.457031,19388,20440,19022,20299,0.450000,-0.550000,0.300000,0.000000,1772849383377.765,0.431998,-0.551934,0.299764,0.000000,0.000000,0.000000,1.000000,position_only
2026-03-07T02:09:43.393801+00:00,1772849383393.801,0.431396,-0.553711,0.299805,0.089172,-0.918457,-2.472656,19443,20404,19051,20275,0.450000,-0.550000,0.300000,0.000000,1772849383386.358,0.431881,-0.552110,0.299584,0.000000,0.000000,0.000000,1.000000,position_only
2026-03-07T02:09:43.403679+00:00,1772849383403.679,0.431396,-0.553711,0.299561,0.098877,-0.987793,-2.490234,19509,20335,19168,20178,0.450000,-0.550000,0.300000,0.000000,1772849383403.533,0.431745,-0.552390,0.299198,0.000000,0.000000,0.000000,1.000000,position_only
2026-03-07T02:09:43.412823+00:00,1772849383412.822,0.431152,-0.553711,0.299316,0.105774,-1.041992,-2.501953,19517,20343,19183,20142,0.450000,-0.550000,0.300000,0.000000,1772849383412.074,0.431683,-0.552541,0.299030,0.000000,0.000000,0.000000,1.000000,position_only
2026-03-07T02:09:43.423556+00:00,1772849383423.555,0.431152,-0.554199,0.299072,0.113831,-1.075195,-2.503906,19343,20491,19109,20224,0.450000,-0.550000,0.300000,0.000000,1772849383420.718,0.431621,-0.552672,0.298867,0.000000,0.000000,0.000000,1.000000,position_only
2026-03-07T02:09:43.433402+00:00,1772849383433.402,0.431152,-0.554199,0.298828,0.115967,-1.083984,-2.513672,19290,20509,19069,20290,0.450000,-0.550000,0.300000,0.000000,1772849383429.388,0.431575,-0.552796,0.298718,0.000000,0.000000,0.000000,1.000000,position_only
2026-03-07T02:09:43.443878+00:00,1772849383443.877,0.431152,-0.554688,0.298584,0.110168,-1.083984,-2.533203,19443,20356,19284,20082,0.450000,-0.550000,0.300000,0.000000,1772849383437.913,0.431558,-0.552901,0.298577,0.000000,0.000000,0.000000,1.000000,position_only
2026-03-07T02:09:43.452183+00:00,1772849383452.182,0.431152,-0.554688,0.298584,0.103577,-1.066406,-2.535156,19404,20388,19226,20147,0.450000,-0.550000,0.300000,0.000000,1772849383446.591,0.431552,-0.553017,0.298444,0.000000,0.000000,0.000000,1.000000,position_only
2026-03-07T02:09:43.462734+00:00,1772849383462.734,0.431152,-0.554688,0.298340,0.091919,-1.055664,-2.539062,19247,20540,19146,20220,0.450000,-0.550000,0.300000,0.000000,1772849383455.206,0.431565,-0.553141,0.298288,0.000000,0.000000,0.000000,1.000000,position_only
2026-03-07T02:09:43.473703+00:00,1772849383473.703,0.431396,-0.554688,0.298096,0.075745,-1.025391,-2.554688,19362,20405,19273,20111,0.450000,-0.550000,0.300000,0.000000,1772849383472.531,0.431632,-0.553507,0.297874,0.000000,0.000000,0.000000,1.000000,position_only
2026-03-07T02:09:43.482985+00:00,1772849383482.984,0.431396,-0.555176,0.297852,0.059875,-0.994629,-2.558594,19348,20429,19290,20097,0.450000,-0.550000,0.300000,0.000000,1772849383481.358,0.431632,-0.553622,0.297758,0.000000,0.000000,0.000000,1.000000,position_only
2026-03-07T02:09:43.493121+00:00,1772849383493.119,0.431396,-0.555176,0.297607,0.046997,-0.945312,-2.562500,19340,20464,19338,20034,0.450000,-0.550000,0.300000,0.000000,1772849383489.896,0.431669,-0.553729,0.297588,0.000000,0.000000,0.000000,1.000000,position_only
2026-03-07T02:09:43.506390+00:00,1772849383506.389,0.431641,-0.555176,0.297607,0.035828,-0.885254,-2.568359,19348,20452,19381,20009,0.450000,-0.550000,0.300000,0.000000,1772849383498.542,0.431723,-0.553825,0.297448,0.000000,0.000000,0.000000,1.000000,position_only
2026-03-07T02:09:43.514089+00:00,1772849383514.088,0.431641,-0.555664,0.297363,0.022934,-0.806152,-2.566406,19412,20384,19488,19920,0.450000,-0.550000,0.300000,0.000000,1772849383507.096,0.431769,-0.553946,0.297300,0.000000,0.000000,0.000000,1.000000,position_only
2026-03-07T02:09:43.522906+00:00,1772849383522.906,0.431641,-0.555664,0.297363,0.022934,-0.806152,-2.566406,19323,20483,19343,20054,0.450000,-0.550000,0.300000,0.000000,1772849383515.747,0.431822,-0.554051,0.297155,0.000000,0.000000,0.000000,1.000000,position_only
2026-03-07T02:09:43.532074+00:00,1772849383532.073,0.431885,-0.555664,0.296875,-0.009430,-0.660156,-2.560547,19263,20476,19380,20071,0.450000,-0.550000,0.300000,0.000000,1772849383524.298,0.431902,-0.554154,0.297004,0.000000,0.000000,0.000000,1.000000,position_only
2026-03-07T02:09:43.544113+00:00,1772849383544.113,0.432129,-0.555664,0.296875,-0.033875,-0.586914,-2.564453,19229,20514,19379,20046,0.450000,-0.550000,0.300000,0.000000,1772849383541.588,0.432097,-0.554338,0.296732,0.000000,0.000000,0.000000,1.000000,position_only
2026-03-07T02:09:43.555572+00:00,1772849383555.572,0.432129,-0.555664,0.296875,-0.033875,-0.586914,-2.564453,19288,20446,19453,19984,0.450000,-0.550000,0.300000,0.000000,1772849383550.105,0.432197,-0.554433,0.296594,0.000000,0.000000,0.000000,1.000000,position_only
2026-03-07T02:09:43.563508+00:00,1772849383563.508,0.432373,-0.556152,0.296631,-0.055176,-0.478516,-2.556641,19289,20455,19467,19936,0.450000,-0.550000,0.300000,0.000000,1772849383558.594,0.432290,-0.554498,0.296449,0.000000,0.000000,0.000000,1.000000,position_only
2026-03-07T02:09:43.572892+00:00,1772849383572.891,0.432373,-0.556152,0.296387,-0.071777,-0.388672,-2.552734,19186,20571,19311,20065,0.450000,-0.550000,0.300000,0.000000,1772849383567.083,0.432407,-0.554566,0.296330,0.000000,0.000000,0.000000,1.000000,position_only
2026-03-07T02:09:43.583626+00:00,1772849383583.625,0.432617,-0.556152,0.296387,-0.080994,-0.319336,-2.554688,19219,20591,19363,19979,0.450000,-0.550000,0.300000,0.000000,1772849383575.587,0.432507,-0.554666,0.296207,0.000000,0.000000,0.000000,1.000000,position_only
2026-03-07T02:09:43.593799+00:00,1772849383593.798,0.432861,-0.556152,0.296143,-0.075867,-0.226562,-2.560547,19240,20582,19351,19977,0.450000,-0.550000,0.300000,0.000000,1772849383592.704,0.432749,-0.554816,0.295951,0.000000,0.000000,0.000000,1.000000,position_only
2026-03-07T02:09:43.603552+00:00,1772849383603.552,0.433105,-0.556152,0.295898,-0.068604,-0.155762,-2.562500,19347,20482,19409,19925,0.450000,-0.550000,0.300000,0.000000,1772849383601.279,0.432871,-0.554855,0.295823,0.000000,0.000000,0.000000,1.000000,position_only
2026-03-07T02:09:43.612645+00:00,1772849383612.645,0.433105,-0.556641,0.295898,-0.059418,-0.108337,-2.562500,19250,20592,19331,20006,0.450000,-0.550000,0.300000,0.000000,1772849383609.762,0.433000,-0.554915,0.295723,0.000000,0.000000,0.000000,1.000000,position_only
2026-03-07T02:09:43.625787+00:00,1772849383625.787,0.433350,-0.556641,0.295654,-0.046143,-0.050201,-2.568359,19295,20515,19370,20005,0.450000,-0.550000,0.300000,0.000000,1772849383618.252,0.433132,-0.554978,0.295609,0.000000,0.000000,0.000000,1.000000,position_only
2026-03-07T02:09:43.634304+00:00,1772849383634.303,0.433594,-0.556641,0.295654,-0.045776,-0.013557,-2.572266,19264,20526,19345,20045,0.450000,-0.550000,0.300000,0.000000,1772849383627.047,0.433262,-0.555051,0.295492,0.000000,0.000000,0.000000,1.000000,position_only
2026-03-07T02:09:43.643449+00:00,1772849383643.448,0.433838,-0.556641,0.295410,-0.051971,0.023407,-2.576172,19198,20605,19288,20084,0.450000,-0.550000,0.300000,0.000000,1772849383635.587,0.433428,-0.555084,0.295370,0.000000,0.000000,0.000000,1.000000,position_only
2026-03-07T02:09:43.653138+00:00,1772849383653.137,0.433838,-0.556641,0.295166,-0.056030,0.044098,-2.587891,19194,20594,19217,20169,0.450000,-0.550000,0.300000,0.000000,1772849383652.643,0.433701,-0.555226,0.295108,0.000000,0.000000,0.000000,1.000000,position_only
2026-03-07T02:09:43.665871+00:00,1772849383665.870,0.434082,-0.556641,0.295166,-0.054260,0.062286,-2.599609,19255,20578,19291,20069,0.450000,-0.550000,0.300000,0.000000,1772849383661.172,0.433859,-0.555264,0.295001,0.000000,0.000000,0.000000,1.000000,position_only
2026-03-07T02:09:43.674365+00:00,1772849383674.364,0.434082,-0.556641,0.295166,-0.054260,0.062286,-2.599609,19204,20620,19182,20190,0.450000,-0.550000,0.300000,0.000000,1772849383669.713,0.433987,-0.555308,0.294881,0.000000,0.000000,0.000000,1.000000,position_only
2026-03-07T02:09:43.685232+00:00,1772849383685.231,0.434326,-0.556641,0.294922,-0.051514,0.063049,-2.615234,19245,20607,19236,20123,0.450000,-0.550000,0.300000,0.000000,1772849383678.199,0.434102,-0.555370,0.294754,0.000000,0.000000,0.000000,1.000000,position_only
2026-03-07T02:09:43.693631+00:00,1772849383693.630,0.434326,-0.556641,0.294678,-0.046173,0.060791,-2.628906,19317,20583,19247,20075,0.450000,-0.550000,0.300000,0.000000,1772849383686.740,0.434207,-0.555401,0.294632,0.000000,0.000000,0.000000,1.000000,position_only
2026-03-07T02:09:43.706521+00:00,1772849383706.520,0.434570,-0.556641,0.294678,-0.023575,0.061798,-2.634766,19341,20566,19299,20014,0.450000,-0.550000,0.300000,0.000000,1772849383703.706,0.434441,-0.555455,0.294393,0.000000,0.000000,0.000000,1.000000,position_only
2026-03-07T02:09:43.714206+00:00,1772849383714.206,0.434814,-0.556641,0.294434,-0.006023,0.054291,-2.644531,19236,20671,19180,20142,0.450000,-0.550000,0.300000,0.000000,1772849383712.330,0.434576,-0.555505,0.294253,0.000000,0.000000,0.000000,1.000000,position_only
2026-03-07T02:09:43.724886+00:00,1772849383724.886,0.434814,-0.557129,0.294189,0.016846,0.055878,-2.652344,19288,20612,19244,20097,0.450000,-0.550000,0.300000,0.000000,1772849383720.842,0.434698,-0.555540,0.294125,0.000000,0.000000,0.000000,1.000000,position_only
