time_wall,time_ms,state_x,state_y,state_z,roll,pitch,yaw,u1_16,u2_16,u3_16,u4_16,setpoint_x,setpoint_y,setpoint_z,setpoint_yaw_deg,mocap_time_ms,mocap_x,mocap_y,mocap_z,mocap_qx,mocap_qy,mocap_qz,mocap_qw,mocap_mode
2026-03-07T02:16:54.235272+00:00,1772849814235.269,0.453369,-0.564453,0.316162,-0.332520,0.106445,-0.196655,20244,19158,20259,20015,0.450000,-0.550000,0.300000,0.000000,1772849814233.735,0.453687,-0.567113,0.315714,0.000000,0.000000,0.000000,1.000000,position_only
2026-03-07T02:16:54.246543+00:00,1772849814246.542,0.453369,-0.564453,0.316162,-0.344971,0.078186,-0.192017,20244,19158,20259,20015,0.450000,-0.550000,0.300000,0.000000,1772849814242.302,0.453677,-0.567143,0.315839,0.000000,0.000000,0.000000,1.000000,position_only
2026-03-07T02:16:54.256745+00:00,1772849814256.744,0.453369,-0.564453,0.316406,-0.348633,0.061432,-0.190063,20244,19158,20259,20015,0.450000,-0.550000,0.300000,0.000000,1772849814250.872,0.453673,-0.567182,0.315978,0.000000,0.000000,0.000000,1.000000,position_only
2026-03-07T02:16:54.265992+00:00,1772849814265.990,0.453369,-0.564453,0.316650,-0.356689,0.047607,-0.192139,20244,19158,20259,20015,0.450000,-0.550000,0.300000,0.000000,1772849814259.418,0.453678,-0.567201,0.316102,0.000000,0.000000,0.000000,1.000000,position_only
2026-03-07T02:16:54.275788+00:00,1772849814275.787,0.453369,-0.564453,0.316650,-0.371338,0.050049,-0.189453,20244,19158,20259,20015,0.450000,-0.550000,0.300000,0.000000,1772849814268.204,0.453609,-0.567212,0.316273,0.000000,0.000000,0.000000,1.000000,position_only
2026-03-07T02:16:54.286428+00:00,1772849814286.427,0.453369,-0.564453,0.316895,-0.372314,0.071777,-0.171265,20244,19158,20259,20015,0.450000,-0.550000,0.300000,0.000000,1772849814285.124,0.453620,-0.567294,0.316535,0.000000,0.000000,0.000000,1.000000,position_only
2026-03-07T02:16:54.295555+00:00,1772849814295.553,0.453369,-0.564453,0.316895,-0.367920,0.093506,-0.154053,20244,19158,20259,20015,0.450000,-0.550000,0.300000,0.000000,1772849814293.906,0.453591,-0.567376,0.316681,0.000000,0.000000,0.000000,1.000000,position_only
2026-03-07T02:16:54.306357+00:00,1772849814306.355,0.453369,-0.564453,0.317139,-0.371094,0.090088,-0.144775,20244,19158,20259,20015,0.450000,-0.550000,0.300000,0.000000,1772849814302.665,0.453588,-0.567418,0.316831,0.000000,0.000000,0.000000,1.000000,position_only
2026-03-07T02:16:54.316050+00:00,1772849814316.048,0.453369,-0.564941,0.317383,-0.372070,0.086548,-0.137817,20244,19158,20259,20015,0.450000,-0.550000,0.300000,0.000000,1772849814311.165,0.453589,-0.567450,0.316958,0.000000,0.000000,0.000000,1.000000,position_only
2026-03-07T02:16:54.326851+00:00,1772849814326.849,0.453125,-0.564941,0.317383,-0.374512,0.102966,-0.129272,20244,19158,20259,20015,0.450000,-0.550000,0.300000,0.000000,1772849814319.764,0.453576,-0.567493,0.317099,0.000000,0.000000,0.000000,1.000000,position_only
2026-03-07T02:16:54.336550+00:00,1772849814336.549,0.453125,-0.564941,0.317627,-0.389648,0.090088,-0.131836,20244,19158,20259,20015,0.450000,-0.550000,0.300000,0.000000,1772849814328.291,0.453556,-0.567529,0.317232,0.000000,0.000000,0.000000,1.000000,position_only
2026-03-07T02:16:54.345756+00:00,1772849814345.755,0.453125,-0.564941,0.317871,-0.399170,0.078979,-0.127930,20244,19158,20259,20015,0.450000,-0.550000,0.300000,0.000000,1772849814345.529,0.453469,-0.567619,0.317499,0.000000,0.000000,0.000000,1.000000,position_only
2026-03-07T02:16:54.355627+00:00,1772849814355.625,0.453125,-0.564941,0.317871,-0.406006,0.074158,-0.125488,20244,19158,20259,20015,0.450000,-0.550000,0.300000,0.000000,1772849814354.057,0.453420,-0.567660,0.317654,0.000000,0.000000,0.000000,1.000000,position_only
2026-03-07T02:16:54.366145+00:00,1772849814366.144,0.453125,-0.564941,0.318115,-0.416748,0.062622,-0.124146,20244,19158,20259,20015,0.450000,-0.550000,0.300000,0.000000,1772849814362.529,0.453422,-0.567683,0.317760,0.000000,0.000000,0.000000,1.000000,position_only
2026-03-07T02:16:54.376665+00:00,1772849814376.664,0.453125,-0.564941,0.318359,-0.421875,0.070862,-0.108215,20244,19158,20259,20015,0.450000,-0.550000,0.300000,0.000000,1772849814371.014,0.453416,-0.567739,0.317885,0.000000,0.000000,0.000000,1.000000,position_only
2026-03-07T02:16:54.385743+00:00,1772849814385.742,0.453125,-0.564941,0.318359,-0.422607,0.076416,-0.100464,20244,19158,20259,20015,0.450000,-0.550000,0.300000,0.000000,1772849814379.644,0.453402,-0.567771,0.318011,0.000000,0.000000,0.000000,1.000000,position_only
2026-03-07T02:16:54.396294+00:00,1772849814396.293,0.453125,-0.565430,0.318604,-0.424316,0.078857,-0.095154,20244,19158,20259,20015,0.450000,-0.550000,0.300000,0.000000,1772849814388.123,0.453399,-0.567837,0.318105,0.000000,0.000000,0.000000,1.000000,position_only
2026-03-07T02:16:54.406908+00:00,1772849814406.907,0.453125,-0.565430,0.318848,-0.425293,0.082397,-0.091309,20244,19158,20259,20015,0.450000,-0.550000,0.300000,0.000000,1772849814405.212,0.453340,-0.567911,0.318379,0.000000,0.000000,0.000000,1.000000,position_only
2026-03-07T02:16:54.416808+00:00,1772849814416.807,0.453125,-0.565430,0.318848,-0.437256,0.094299,-0.084839,20244,19158,20259,20015,0.450000,-0.550000,0.300000,0.000000,1772849814413.642,0.453323,-0.567950,0.318509,0.000000,0.000000,0.000000,1.000000,position_only
2026-03-07T02:16:54.425917+00:00,1772849814425.916,0.453125,-0.565430,0.319092,-0.455811,0.111267,-0.076721,20244,19158,20259,20015,0.450000,-0.550000,0.300000,0.000000,1772849814422.205,0.453294,-0.567987,0.318655,0.000000,0.000000,0.000000,1.000000,position_only
2026-03-07T02:16:54.435741+00:00,1772849814435.740,0.452881,-0.565430,0.319092,-0.464600,0.118530,-0.078674,20244,19158,20259,20015,0.450000,-0.550000,0.300000,0.000000,1772849814430.851,0.453290,-0.568027,0.318774,0.000000,0.000000,0.000000,1.000000,position_only
2026-03-07T02:16:54.446294+00:00,1772849814446.292,0.452881,-0.565430,0.319336,-0.468994,0.112549,-0.075256,20244,19158,20259,20015,0.450000,-0.550000,0.300000,0.000000,1772849814439.437,0.453276,-0.568067,0.318891,0.000000,0.000000,0.000000,1.000000,position_only
2026-03-07T02:16:54.455807+00:00,1772849814455.806,0.452881,-0.565430,0.319580,-0.472412,0.105103,-0.072998,20244,19158,20259,20015,0.450000,-0.550000,0.300000,0.000000,1772849814447.874,0.453251,-0.568125,0.319060,0.000000,0.000000,0.000000,1.000000,position_only
2026-03-07T02:16:54.466286+00:00,1772849814466.285,0.452881,-0.565430,0.319580,-0.473877,0.097046,-0.072571,20244,19158,20259,20015,0.450000,-0.550000,0.300000,0.000000,1772849814464.845,0.453219,-0.568253,0.319323,0.000000,0.000000,0.000000,1.000000,position_only
2026-03-07T02:16:54.476836+00:00,1772849814476.834,0.452881,-0.565430,0.319824,-0.476562,0.077393,-0.069519,20244,19158,20259,20015,0.450000,-0.550000,0.300000,0.000000,1772849814473.471,0.453174,-0.568341,0.319540,0.000000,0.000000,0.000000,1.000000,position_only
2026-03-07T02:16:54.486812+00:00,1772849814486.811,0.452881,-0.565430,0.320068,-0.478271,0.052002,-0.074280,20244,19158,20259,20015,0.450000,-0.550000,0.300000,0.000000,1772849814482.244,0.453149,-0.568381,0.319642,0.000000,0.000000,0.000000,1.000000,position_only
2026-03-07T02:16:54.496502+00:00,1772849814496.501,0.452881,-0.565918,0.320068,-0.482422,0.039886,-0.074402,20244,19158,20259,20015,0.450000,-0.550000,0.300000,0.000000,1772849814490.743,0.453139,-0.568398,0.319736,0.000000,0.000000,0.000000,1.000000,position_only
2026-03-07T02:16:54.506395+00:00,1772849814506.394,0.452881,-0.565918,0.320312,-0.488281,0.027481,-0.081848,20244,19158,20259,20015,0.450000,-0.550000,0.300000,0.000000,1772849814499.218,0.453090,-0.568449,0.319827,0.000000,0.000000,0.000000,1.000000,position_only
2026-03-07T02:16:54.517007+00:00,1772849814517.005,0.452881,-0.565918,0.320312,-0.500977,0.034729,-0.075378,20244,19158,20259,20015,0.450000,-0.550000,0.300000,0.000000,1772849814516.215,0.453073,-0.568527,0.320002,0.000000,0.000000,0.000000,1.000000,position_only
2026-03-07T02:16:54.526105+00:00,1772849814526.104,0.452637,-0.565918,0.320557,-0.507812,0.050140,-0.077576,20244,19158,20259,20015,0.450000,-0.550000,0.300000,0.000000,1772849814524.943,0.452982,-0.568552,0.320111,0.000000,0.000000,0.000000,1.000000,position_only
2026-03-07T02:16:54.536177+00:00,1772849814536.175,0.452637,-0.565918,0.320557,-0.503418,0.069519,-0.076721,20244,19158,20259,20015,0.450000,-0.550000,0.300000,0.000000,1772849814533.551,0.452988,-0.568616,0.320176,0.000000,0.000000,0.000000,1.000000,position_only
2026-03-07T02:16:54.547231+00:00,1772849814547.229,0.452637,-0.565918,0.320801,-0.500977,0.073792,-0.086182,20244,19158,20259,20015,0.450000,-0.550000,0.300000,0.000000,1772849814542.293,0.452977,-0.568649,0.320234,0.000000,0.000000,0.000000,1.000000,position_only
2026-03-07T02:16:54.556887+00:00,1772849814556.885,0.452637,-0.565918,0.320801,-0.502441,0.064392,-0.099243,20244,19158,20259,20015,0.450000,-0.550000,0.300000,0.000000,1772849814550.760,0.452919,-0.568676,0.320346,0.000000,0.000000,0.000000,1.000000,position_only
2026-03-07T02:16:54.566073+00:00,1772849814566.072,0.452637,-0.565918,0.320801,-0.506348,0.051544,-0.107300,20244,19158,20259,20015,0.450000,-0.550000,0.300000,0.000000,1772849814559.257,0.452888,-0.568706,0.320440,0.000000,0.000000,0.000000,1.000000,position_only
2026-03-07T02:16:54.576604+00:00,1772849814576.603,0.452637,-0.565918,0.321045,-0.506348,0.033844,-0.097961,20244,19158,20259,20015,0.450000,-0.550000,0.300000,0.000000,1772849814567.705,0.452874,-0.568732,0.320525,0.000000,0.000000,0.000000,1.000000,position_only
2026-03-07T02:16:54.586551+00:00,1772849814586.549,0.452637,-0.565918,0.321045,-0.503906,0.016129,-0.088074,20244,19158,20259,20015,0.450000,-0.550000,0.300000,0.000000,1772849814584.943,0.452844,-0.568831,0.320665,0.000000,0.000000,0.000000,1.000000,position_only
2026-03-07T02:16:54.596508+00:00,1772849814596.506,0.452637,-0.566406,0.321289,-0.510254,0.001428,-0.087341,20244,19158,20259,20015,0.450000,-0.550000,0.300000,0.000000,1772849814593.426,0.452797,-0.568872,0.320739,0.000000,0.000000,0.000000,1.000000,position_only
2026-03-07T02:16:54.607671+00:00,1772849814607.670,0.452393,-0.566406,0.321289,-0.509766,-0.007927,-0.086121,20244,19158,20259,20015,0.450000,-0.550000,0.300000,0.000000,1772849814602.172,0.452787,-0.568901,0.320819,0.000000,0.000000,0.000000,1.000000,position_only
2026-03-07T02:16:54.616751+00:00,1772849814616.750,0.452393,-0.566406,0.321289,-0.518066,-0.007965,-0.086060,20244,19158,20259,20015,0.450000,-0.550000,0.300000,0.000000,1772849814610.943,0.452775,-0.568950,0.320884,0.000000,0.000000,0.000000,1.000000,position_only
2026-03-07T02:16:54.627307+00:00,1772849814627.306,0.452393,-0.566406,0.321533,-0.531250,-0.000195,-0.090271,20244,19158,20259,20015,0.450000,-0.550000,0.300000,0.000000,1772849814619.430,0.452762,-0.569006,0.320957,0.000000,0.000000,0.000000,1.000000,position_only
2026-03-07T02:16:54.637192+00:00,1772849814637.191,0.452393,-0.566406,0.321533,-0.532715,0.007057,-0.092651,20244,19158,20259,20015,0.450000,-0.550000,0.300000,0.000000,1772849814636.457,0.452703,-0.569064,0.321129,0.000000,0.000000,0.000000,1.000000,position_only
2026-03-07T02:16:54.646433+00:00,1772849814646.432,0.452393,-0.566406,0.321533,-0.522949,0.006660,-0.094910,20244,19158,20259,20015,0.450000,-0.550000,0.300000,0.000000,1772849814644.947,0.452666,-0.569114,0.321206,0.000000,0.000000,0.000000,1.000000,position_only
2026-03-07T02:16:54.656762+00:00,1772849814656.761,0.452393,-0.566406,0.321777,-0.514160,-0.000175,-0.098694,20244,19158,20259,20015,0.450000,-0.550000,0.300000,0.000000,1772849814653.646,0.452633,-0.569159,0.321282,0.000000,0.000000,0.000000,1.000000,position_only
2026-03-07T02:16:54.667457+00:00,1772849814667.456,0.452393,-0.566406,0.321777,-0.518555,-0.013023,-0.105286,20244,19158,20259,20015,0.450000,-0.550000,0.300000,0.000000,1772849814662.273,0.452636,-0.569207,0.321337,0.000000,0.000000,0.000000,1.000000,position_only
2026-03-07T02:16:54.676736+00:00,1772849814676.735,0.452393,-0.566406,0.321777,-0.526855,-0.016068,-0.111389,20244,19158,20259,20015,0.450000,-0.550000,0.300000,0.000000,1772849814670.764,0.452625,-0.569227,0.321427,0.000000,0.000000,0.000000,1.000000,position_only
2026-03-07T02:16:54.687181+00:00,1772849814687.180,0.452393,-0.566406,0.322021,-0.541016,-0.006901,-0.105347,20244,19158,20259,20015,0.450000,-0.550000,0.300000,0.000000,1772849814679.360,0.452596,-0.569229,0.321503,0.000000,0.000000,0.000000,1.000000,position_only
2026-03-07T02:16:54.697012+00:00,1772849814697.011,0.452393,-0.566406,0.322021,-0.548828,-0.000477,-0.106750,20244,19158,20259,20015,0.450000,-0.550000,0.300000,0.000000,1772849814696.473,0.452597,-0.569307,0.321639,0.000000,0.000000,0.000000,1.000000,position_only
2026-03-07T02:16:54.706201+00:00,1772849814706.200,0.452148,-0.566406,0.322266,-0.549805,0.007248,-0.109802,20244,19158,20259,20015,0.450000,-0.550000,0.300000,0.000000,1772849814704.978,0.452557,-0.569327,0.321713,0.000000,0.000000,0.000000,1.000000,position_only
2026-03-07T02:16:54.716339+00:00,1772849814716.337,0.452148,-0.566406,0.322266,-0.540039,0.032806,-0.108826,20244,19158,20259,20015,0.450000,-0.550000,0.300000,0.000000,1772849814713.650,0.452532,-0.569413,0.321770,0.000000,0.000000,0.000000,1.000000,position_only
2026-03-07T02:16:54.727593+00:00,1772849814727.592,0.452148,-0.566406,0.322266,-0.534668,0.044250,-0.109497,20244,19158,20259,20015,0.450000,-0.550000,0.300000,0.000000,1772849814722.198,0.452516,-0.569422,0.321840,0.000000,0.000000,0.000000,1.000000,position_only
2026-03-07T02:16:54.737508+00:00,1772849814737.507,0.452148,-0.566895,0.322510,-0.536133,0.041992,-0.110596,20244,19158,20259,20015,0.450000,-0.550000,0.300000,0.000000,1772849814730.856,0.452506,-0.569447,0.321907,0.000000,0.000000,0.000000,1.000000,position_only
2026-03-07T02:16:54.747278+00:00,1772849814747.277,0.452148,-0.566895,0.322510,-0.523926,0.035553,-0.111084,20244,19158,20259,20015,0.450000,-0.550000,0.300000,0.000000,1772849814739.417,0.452513,-0.569458,0.321978,0.000000,0.000000,0.000000,1.000000,position_only
2026-03-07T02:16:54.757194+00:00,1772849814757.192,0.452148,-0.566895,0.322510,-0.520996,0.032745,-0.106689,20244,19158,20259,20015,0.450000,-0.550000,0.300000,0.000000,1772849814756.674,0.452475,-0.569500,0.322183,0.000000,0.000000,0.000000,1.000000,position_only
2026-03-07T02:16:54.766815+00:00,1772849814766.814,0.452148,-0.566895,0.322754,-0.525879,0.020538,-0.108093,20244,19158,20259,20015,0.450000,-0.550000,0.300000,0.000000,1772849814765.287,0.452428,-0.569517,0.322279,0.000000,0.000000,0.000000,1.000000,position_only
2026-03-07T02:16:54.777410+00:00,1772849814777.409,0.452148,-0.566895,0.322754,-0.526855,0.012863,-0.099548,20244,19158,20259,20015,0.450000,-0.550000,0.300000,0.000000,1772849814773.823,0.452421,-0.569542,0.322349,0.000000,0.000000,0.000000,1.000000,position_only
2026-03-07T02:16:54.787181+00:00,1772849814787.180,0.452148,-0.566895,0.322998,-0.517578,0.027130,-0.091614,20244,19158,20259,20015,0.450000,-0.550000,0.300000,0.000000,1772849814782.665,0.452438,-0.569533,0.322388,0.000000,0.000000,0.000000,1.000000,position_only
2026-03-07T02:16:54.797030+00:00,1772849814797.029,0.452148,-0.566895,0.322998,-0.518066,0.032562,-0.095276,20244,19158,20259,20015,0.450000,-0.550000,0.300000,0.000000,1772849814791.217,0.452415,-0.569525,0.322454,0.000000,0.000000,0.000000,1.000000,position_only
2026-03-07T02:16:54.806851+00:00,1772849814806.849,0.452148,-0.566895,0.322998,-0.521973,0.030289,-0.104309,20244,19158,20259,20015,0.450000,-0.550000,0.300000,0.000000,1772849814799.982,0.452419,-0.569548,0.322513,0.000000,0.000000,0.000000,1.000000,position_only
2026-03-07T02:16:54.816675+00:00,1772849814816.674,0.452148,-0.566895,0.323242,-0.519531,0.034790,-0.103333,20244,19158,20259,20015,0.450000,-0.550000,0.300000,0.000000,1772849814808.507,0.452410,-0.569547,0.322568,0.000000,0.000000,0.000000,1.000000,position_only
2026-03-07T02:16:54.826792+00:00,1772849814826.791,0.452148,-0.566895,0.323242,-0.523926,0.021774,-0.115723,20244,19158,20259,20015,0.450000,-0.550000,0.300000,0.000000,1772849814825.679,0.452397,-0.569582,0.322696,0.000000,0.000000,0.000000,1.000000,position_only
2026-03-07T02:16:54.837029+00:00,1772849814837.028,0.452148,-0.566895,0.323486,-0.525879,0.001733,-0.130371,20244,19158,20259,20015,0.450000,-0.550000,0.300000,0.000000,1772849814834.444,0.452405,-0.569577,0.322731,0.000000,0.000000,0.000000,1.000000,position_only
2026-03-07T02:16:54.847738+00:00,1772849814847.737,0.452148,-0.566895,0.323486,-0.519531,-0.007526,-0.143799,20244,19158,20259,20015,0.450000,-0.550000,0.300000,0.000000,1772849814843.173,0.452421,-0.569580,0.322789,0.000000,0.000000,0.000000,1.000000,position_only
2026-03-07T02:16:54.857213+00:00,1772849814857.211,0.452148,-0.566895,0.323486,-0.510742,-0.024765,-0.152588,20244,19158,20259,20015,0.450000,-0.550000,0.300000,0.000000,1772849814851.796,0.452431,-0.569588,0.322845,0.000000,0.000000,0.000000,1.000000,position_only
2026-03-07T02:16:54.866909+00:00,1772849814866.908,0.452148,-0.566895,0.323486,-0.499756,-0.021042,-0.155640,20244,19158,20259,20015,0.450000,-0.550000,0.300000,0.000000,1772849814860.471,0.452434,-0.569583,0.322894,0.000000,0.000000,0.000000,1.000000,position_only
2026-03-07T02:16:54.877461+00:00,1772849814877.460,0.452148,-0.566895,0.323730,-0.511230,-0.023087,-0.153809,20244,19158,20259,20015,0.450000,-0.550000,0.300000,0.000000,1772849814869.229,0.452445,-0.569591,0.322930,0.000000,0.000000,0.000000,1.000000,position_only
2026-03-07T02:16:54.887603+00:00,1772849814887.602,0.452148,-0.566895,0.323730,-0.516113,-0.018906,-0.157959,20244,19158,20259,20015,0.450000,-0.550000,0.300000,0.000000,1772849814886.277,0.452428,-0.569619,0.323049,0.000000,0.000000,0.000000,1.000000,position_only
2026-03-07T02:16:54.897345+00:00,1772849814897.344,0.452148,-0.566895,0.323730,-0.517090,-0.023468,-0.172485,20244,19158,20259,20015,0.450000,-0.550000,0.300000,0.000000,1772849814894.801,0.452439,-0.569590,0.323069,0.000000,0.000000,0.000000,1.000000,position_only
2026-03-07T02:16:54.906632+00:00,1772849814906.631,0.452148,-0.566895,0.323730,-0.520508,-0.013618,-0.174072,20244,19158,20259,20015,0.450000,-0.550000,0.300000,0.000000,1772849814903.368,0.452433,-0.569573,0.323121,0.000000,0.000000,0.000000,1.000000,position_only
2026-03-07T02:16:54.916811+00:00,1772849814916.810,0.452148,-0.566895,0.323730,-0.525879,-0.008789,-0.174316,20244,19158,20259,20015,0.450000,-0.550000,0.300000,0.000000,1772849814912.172,0.452450,-0.569553,0.323167,0.000000,0.000000,0.000000,1.000000,position_only
2026-03-07T02:16:54.927383+00:00,1772849814927.383,0.452148,-0.566895,0.323975,-0.520020,-0.002821,-0.168335,20244,19158,20259,20015,0.450000,-0.550000,0.300000,0.000000,1772849814920.724,0.452482,-0.569555,0.323192,0.000000,0.000000,0.000000,1.000000,position_only
2026-03-07T02:16:54.937232+00:00,1772849814937.231,0.452148,-0.566895,0.323975,-0.505859,-0.000462,-0.172485,20244,19158,20259,20015,0.450000,-0.550000,0.300000,0.000000,1772849814929.243,0.452491,-0.569564,0.323229,0.000000,0.000000,0.000000,1.000000,position_only
2026-03-07T02:16:54.947398+00:00,1772849814947.397,0.452148,-0.566895,0.323975,-0.494873,-0.011559,-0.183594,20244,19158,20259,20015,0.450000,-0.550000,0.300000,0.000000,1772849814946.787,0.452510,-0.569503,0.323314,0.000000,0.000000,0.000000,1.000000,position_only
2026-03-07T02:16:54.957924+00:00,1772849814957.923,0.452148,-0.566895,0.323975,-0.488525,-0.030411,-0.193237,20244,19158,20259,20015,0.450000,-0.550000,0.300000,0.000000,1772849814955.317,0.452527,-0.569479,0.323353,0.000000,0.000000,0.000000,1.000000,position_only
2026-03-07T02:16:54.967814+00:00,1772849814967.813,0.452148,-0.566895,0.324219,-0.488037,-0.047607,-0.206055,20244,19158,20259,20015,0.450000,-0.550000,0.300000,0.000000,1772849814964.189,0.452551,-0.569477,0.323396,0.000000,0.000000,0.000000,1.000000,position_only
2026-03-07T02:16:54.977336+00:00,1772849814977.335,0.452148,-0.566895,0.324219,-0.471436,-0.046997,-0.213867,20244,19158,20259,20015,0.450000,-0.550000,0.300000,0.000000,1772849814972.668,0.452543,-0.569452,0.323430,0.000000,0.000000,0.000000,1.000000,position_only
2026-03-07T02:16:54.987955+00:00,1772849814987.954,0.452148,-0.566895,0.324219,-0.469971,-0.032562,-0.205688,20244,19158,20259,20015,0.450000,-0.550000,0.300000,0.000000,1772849814981.175,0.452592,-0.569445,0.323454,0.000000,0.000000,0.000000,1.000000,position_only
2026-03-07T02:16:54.996959+00:00,1772849814996.958,0.452148,-0.566895,0.324219,-0.483398,-0.034180,-0.199341,20244,19158,20259,20015,0.450000,-0.550000,0.300000,0.000000,1772849814989.706,0.452606,-0.569421,0.323471,0.000000,0.000000,0.000000,1.000000,position_only
2026-03-07T02:16:55.007690+00:00,1772849815007.689,0.452148,-0.566895,0.324219,-0.496826,-0.037262,-0.198242,20244,19158,20259,20015,0.450000,-0.550000,0.300000,0.000000,1772849815006.865,0.452688,-0.569385,0.323545,0.000000,0.000000,0.000000,1.000000,position_only
2026-03-07T02:16:55.018226+00:00,1772849815018.225,0.452148,-0.566895,0.324219,-0.494385,-0.024246,-0.188599,20244,19158,20259,20015,0.450000,-0.550000,0.300000,0.000000,1772849815015.406,0.452688,-0.569385,0.323545,0.000000,0.000000,0.000000,1.000000,position_only
2026-03-07T02:16:55.028001+00:00,1772849815028.000,0.452148,-0.566895,0.324219,-0.485596,-0.006687,-0.187012,20244,19158,20259,20015,0.450000,-0.550000,0.300000,0.000000,1772849815023.895,0.452739,-0.569316,0.323603,0.000000,0.000000,0.000000,1.000000,position_only
2026-03-07T02:16:55.037745+00:00,1772849815037.744,0.452148,-0.566895,0.324463,-0.481689,0.002926,-0.194092,20244,19158,20259,20015,0.450000,-0.550000,0.300000,0.000000,1772849815032.423,0.452797,-0.569311,0.323601,0.000000,0.000000,0.000000,1.000000,position_only
2026-03-07T02:16:55.047809+00:00,1772849815047.808,0.452393,-0.566895,0.324463,-0.469727,0.010468,-0.202759,20244,19158,20259,20015,0.450000,-0.550000,0.300000,0.000000,1772849815041.235,0.452819,-0.569309,0.323627,0.000000,0.000000,0.000000,1.000000,position_only
2026-03-07T02:16:55.057970+00:00,1772849815057.967,0.452393,-0.566895,0.324463,-0.466797,0.023682,-0.202515,20244,19158,20259,20015,0.450000,-0.550000,0.300000,0.000000,1772849815057.837,0.452857,-0.569253,0.323678,0.000000,0.000000,0.000000,1.000000,position_only
2026-03-07T02:16:55.068015+00:00,1772849815068.014,0.452393,-0.566895,0.324463,-0.464600,0.035828,-0.206421,20244,19158,20259,20015,0.450000,-0.550000,0.300000,0.000000,1772849815066.325,0.452857,-0.569253,0.323678,0.000000,0.000000,0.000000,1.000000,position_only
2026-03-07T02:16:55.077309+00:00,1772849815077.308,0.452393,-0.566895,0.324463,-0.459229,0.037689,-0.211304,20244,19158,20259,20015,0.450000,-0.550000,0.300000,0.000000,1772849815074.873,0.452931,-0.569201,0.323728,0.000000,0.000000,0.000000,1.000000,position_only
2026-03-07T02:16:55.088034+00:00,1772849815088.033,0.452393,-0.566406,0.324463,-0.458252,0.027145,-0.217163,20244,19158,20259,20015,0.450000,-0.550000,0.300000,0.000000,1772849815083.394,0.452987,-0.569167,0.323750,0.000000,0.000000,0.000000,1.000000,position_only
2026-03-07T02:16:55.097790+00:00,1772849815097.789,0.452637,-0.566895,0.324463,-0.462891,0.023849,-0.226685,20244,19158,20259,20015,0.450000,-0.550000,0.300000,0.000000,1772849815092.300,0.453010,-0.569147,0.323779,0.000000,0.000000,0.000000,1.000000,position_only
2026-03-07T02:16:55.106952+00:00,1772849815106.951,0.452637,-0.566895,0.324463,-0.462158,0.016678,-0.234741,20244,19158,20259,20015,0.450000,-0.550000,0.300000,0.000000,1772849815100.785,0.453022,-0.569130,0.323813,0.000000,0.000000,0.000000,1.000000,position_only
2026-03-07T02:16:55.117751+00:00,1772849815117.751,0.452637,-0.566406,0.324707,-0.456055,0.026871,-0.236328,20244,19158,20259,20015,0.450000,-0.550000,0.300000,0.000000,1772849815109.271,0.453059,-0.569103,0.323815,0.000000,0.000000,0.000000,1.000000,position_only
2026-03-07T02:16:55.128460+00:00,1772849815128.459,0.452637,-0.566406,0.324707,-0.453857,0.055298,-0.235352,20244,19158,20259,20015,0.450000,-0.550000,0.300000,0.000000,1772849815126.332,0.453087,-0.569034,0.323859,0.000000,0.000000,0.000000,1.000000,position_only
2026-03-07T02:16:55.137753+00:00,1772849815137.751,0.452637,-0.566406,0.324707,-0.446777,0.076721,-0.241089,20244,19158,20259,20015,0.450000,-0.550000,0.300000,0.000000,1772849815134.875,0.453121,-0.568996,0.323870,0.000000,0.000000,0.000000,1.000000,position_only
2026-03-07T02:16:55.148493+00:00,1772849815148.491,0.452637,-0.566406,0.324707,-0.428711,0.084656,-0.247803,20244,19158,20259,20015,0.450000,-0.550000,0.300000,0.000000,1772849815143.363,0.453163,-0.568960,0.323897,0.000000,0.000000,0.000000,1.000000,position_only
2026-03-07T02:16:55.157776+00:00,1772849815157.775,0.452637,-0.566406,0.324707,-0.420654,0.077148,-0.262695,20244,19158,20259,20015,0.450000,-0.550000,0.300000,0.000000,1772849815151.826,0.453182,-0.568953,0.323929,0.000000,0.000000,0.000000,1.000000,position_only
2026-03-07T02:16:55.168275+00:00,1772849815168.274,0.452881,-0.566406,0.324707,-0.416260,0.059235,-0.277100,20244,19158,20259,20015,0.450000,-0.550000,0.300000,0.000000,1772849815160.366,0.453228,-0.568949,0.323938,0.000000,0.000000,0.000000,1.000000,position_only
2026-03-07T02:16:55.178190+00:00,1772849815178.189,0.452881,-0.566406,0.324707,-0.407471,0.050903,-0.287109,20244,19158,20259,20015,0.450000,-0.550000,0.300000,0.000000,1772849815177.623,0.453288,-0.568875,0.323966,0.000000,0.000000,0.000000,1.000000,position_only
2026-03-07T02:16:55.187359+00:00,1772849815187.358,0.452881,-0.566406,0.324707,-0.418213,0.035034,-0.299805,20244,19158,20259,20015,0.450000,-0.550000,0.300000,0.000000,1772849815186.138,0.453326,-0.568828,0.323986,0.000000,0.000000,0.000000,1.000000,position_only
2026-03-07T02:16:55.197975+00:00,1772849815197.974,0.452881,-0.566406,0.324707,-0.427246,0.034088,-0.308350,20244,19158,20259,20015,0.450000,-0.550000,0.300000,0.000000,1772849815194.589,0.453363,-0.568790,0.324007,0.000000,0.000000,0.000000,1.000000,position_only
2026-03-07T02:16:55.207749+00:00,1772849815207.748,0.452881,-0.566406,0.324707,-0.437256,0.054810,-0.302002,20244,19158,20259,20015,0.450000,-0.550000,0.300000,0.000000,1772849815203.102,0.453383,-0.568767,0.324015,0.000000,0.000000,0.000000,1.000000,position_only
2026-03-07T02:16:55.218509+00:00,1772849815218.508,0.452881,-0.566406,0.324707,-0.444580,0.062744,-0.304443,20244,19158,20259,20015,0.450000,-0.550000,0.300000,0.000000,1772849815211.590,0.453421,-0.568737,0.324041,0.000000,0.000000,0.000000,1.000000,position_only
2026-03-07T02:16:55.228281+00:00,1772849815228.281,0.453125,-0.566406,0.324707,-0.447266,0.075134,-0.305908,20244,19158,20259,20015,0.450000,-0.550000,0.300000,0.000000,1772849815220.153,0.453447,-0.568701,0.324038,0.000000,0.000000,0.000000,1.000000,position_only
2026-03-07T02:16:55.238085+00:00,1772849815238.084,0.453125,-0.566406,0.324707,-0.437744,0.099426,-0.302734,20244,19158,20259,20015,0.450000,-0.550000,0.300000,0.000000,1772849815237.221,0.453492,-0.568595,0.324098,0.000000,0.000000,0.000000,1.000000,position_only
2026-03-07T02:16:55.248736+00:00,1772849815248.735,0.453125,-0.565918,0.324707,-0.431885,0.112671,-0.305664,20244,19158,20259,20015,0.450000,-0.550000,0.300000,0.000000,1772849815245.769,0.453524,-0.568546,0.324115,0.000000,0.000000,0.000000,1.000000,position_only
2026-03-07T02:16:55.257981+00:00,1772849815257.980,0.453125,-0.565918,0.324707,-0.412109,0.110657,-0.315918,20244,19158,20259,20015,0.450000,-0.550000,0.300000,0.000000,1772849815254.258,0.453583,-0.568508,0.324126,0.000000,0.000000,0.000000,1.000000,position_only
2026-03-07T02:16:55.268033+00:00,1772849815268.033,0.453125,-0.565918,0.324707,-0.397217,0.099304,-0.323486,20244,19158,20259,20015,0.450000,-0.550000,0.300000,0.000000,1772849815262.766,0.453608,-0.568499,0.324135,0.000000,0.000000,0.000000,1.000000,position_only
2026-03-07T02:16:55.278007+00:00,1772849815278.006,0.453125,-0.565918,0.324707,-0.392578,0.084351,-0.332275,20244,19158,20259,20015,0.450000,-0.550000,0.300000,0.000000,1772849815271.269,0.453606,-0.568439,0.324188,0.000000,0.000000,0.000000,1.000000,position_only
2026-03-07T02:16:55.287959+00:00,1772849815287.958,0.453369,-0.565918,0.324707,-0.398193,0.075256,-0.349365,20244,19158,20259,20015,0.450000,-0.550000,0.300000,0.000000,1772849815279.825,0.453661,-0.568425,0.324178,0.000000,0.000000,0.000000,1.000000,position_only
2026-03-07T02:16:55.297998+00:00,1772849815297.997,0.453369,-0.565918,0.324951,-0.402588,0.078125,-0.360107,20244,19158,20259,20015,0.450000,-0.550000,0.300000,0.000000,1772849815296.882,0.453698,-0.568329,0.324241,0.000000,0.000000,0.000000,1.000000,position_only
2026-03-07T02:16:55.308545+00:00,1772849815308.544,0.453369,-0.565918,0.324951,-0.403320,0.074402,-0.364502,20244,19158,20259,20015,0.450000,-0.550000,0.300000,0.000000,1772849815305.468,0.453826,-0.568314,0.324203,0.000000,0.000000,0.000000,1.000000,position_only
2026-03-07T02:16:55.318289+00:00,1772849815318.288,0.453369,-0.565918,0.324951,-0.399902,0.059021,-0.377197,20244,19158,20259,20015,0.450000,-0.550000,0.300000,0.000000,1772849815313.989,0.453869,-0.568287,0.324221,0.000000,0.000000,0.000000,1.000000,position_only
2026-03-07T02:16:55.328268+00:00,1772849815328.267,0.453369,-0.565918,0.324951,-0.399658,0.057007,-0.387695,20244,19158,20259,20015,0.450000,-0.550000,0.300000,0.000000,1772849815322.589,0.453880,-0.568265,0.324243,0.000000,0.000000,0.000000,1.000000,position_only
2026-03-07T02:16:55.337569+00:00,1772849815337.569,0.453369,-0.565918,0.324951,-0.400635,0.057037,-0.395996,20244,19158,20259,20015,0.450000,-0.550000,0.300000,0.000000,1772849815331.089,0.453891,-0.568239,0.324285,0.000000,0.000000,0.000000,1.000000,position_only
2026-03-07T02:16:55.348855+00:00,1772849815348.854,0.453613,-0.565918,0.324951,-0.407227,0.050659,-0.402344,20244,19158,20259,20015,0.450000,-0.550000,0.300000,0.000000,1772849815348.495,0.453986,-0.568153,0.324314,0.000000,0.000000,0.000000,1.000000,position_only
2026-03-07T02:16:55.358924+00:00,1772849815358.923,0.453613,-0.565918,0.324951,-0.402832,0.042328,-0.408203,20244,19158,20259,20015,0.450000,-0.550000,0.300000,0.000000,1772849815357.070,0.454020,-0.568092,0.324339,0.000000,0.000000,0.000000,1.000000,position_only
2026-03-07T02:16:55.368394+00:00,1772849815368.393,0.453613,-0.565430,0.324951,-0.398926,0.033173,-0.412842,20244,19158,20259,20015,0.450000,-0.550000,0.300000,0.000000,1772849815365.586,0.454062,-0.568085,0.324368,0.000000,0.000000,0.000000,1.000000,position_only
2026-03-07T02:16:55.378781+00:00,1772849815378.780,0.453613,-0.565430,0.324951,-0.390869,0.050018,-0.415283,20244,19158,20259,20015,0.450000,-0.550000,0.300000,0.000000,1772849815374.419,0.454048,-0.568064,0.324412,0.000000,0.000000,0.000000,1.000000,position_only
2026-03-07T02:16:55.388569+00:00,1772849815388.568,0.453613,-0.565430,0.324951,-0.387451,0.073669,-0.418701,20244,19158,20259,20015,0.450000,-0.550000,0.300000,0.000000,1772849815382.894,0.454062,-0.568034,0.324430,0.000000,0.000000,0.000000,1.000000,position_only
2026-03-07T02:16:55.398506+00:00,1772849815398.505,0.453613,-0.565430,0.324951,-0.384766,0.096497,-0.420410,20244,19158,20259,20015,0.450000,-0.550000,0.300000,0.000000,1772849815391.401,0.454093,-0.567996,0.324435,0.000000,0.000000,0.000000,1.000000,position_only
2026-03-07T02:16:55.409155+00:00,1772849815409.154,0.453857,-0.565430,0.324951,-0.382324,0.118347,-0.427002,20244,19158,20259,20015,0.450000,-0.550000,0.300000,0.000000,1772849815408.500,0.454155,-0.567942,0.324480,0.000000,0.000000,0.000000,1.000000,position_only
2026-03-07T02:16:55.418271+00:00,1772849815418.270,0.453857,-0.565430,0.325195,-0.379639,0.121033,-0.432373,20244,19158,20259,20015,0.450000,-0.550000,0.300000,0.000000,1772849815417.131,0.454192,-0.567901,0.324481,0.000000,0.000000,0.000000,1.000000,position_only
2026-03-07T02:16:55.428180+00:00,1772849815428.179,0.453857,-0.565430,0.325195,-0.382568,0.100037,-0.448242,20244,19158,20259,20015,0.450000,-0.550000,0.300000,0.000000,1772849815425.652,0.454222,-0.567885,0.324513,0.000000,0.000000,0.000000,1.000000,position_only
2026-03-07T02:16:55.438624+00:00,1772849815438.623,0.453857,-0.565430,0.325195,-0.388916,0.076904,-0.463379,20244,19158,20259,20015,0.450000,-0.550000,0.300000,0.000000,1772849815434.315,0.454220,-0.567840,0.324548,0.000000,0.000000,0.000000,1.000000,position_only
2026-03-07T02:16:55.448629+00:00,1772849815448.628,0.453857,-0.565430,0.325195,-0.379639,0.060028,-0.472900,20244,19158,20259,20015,0.450000,-0.550000,0.300000,0.000000,1772849815442.788,0.454280,-0.567841,0.324567,0.000000,0.000000,0.000000,1.000000,position_only
2026-03-07T02:16:55.458508+00:00,1772849815458.507,0.453857,-0.565430,0.325195,-0.363525,0.060669,-0.471191,20244,19158,20259,20015,0.450000,-0.550000,0.300000,0.000000,1772849815451.529,0.454319,-0.567809,0.324582,0.000000,0.000000,0.000000,1.000000,position_only
2026-03-07T02:16:55.468321+00:00,1772849815468.320,0.453857,-0.565430,0.325195,-0.362061,0.068359,-0.471680,20244,19158,20259,20015,0.450000,-0.550000,0.300000,0.000000,1772849815460.113,0.454332,-0.567763,0.324614,0.000000,0.000000,0.000000,1.000000,position_only
2026-03-07T02:16:55.478243+00:00,1772849815478.242,0.454102,-0.565430,0.325195,-0.363525,0.078674,-0.479004,20244,19158,20259,20015,0.450000,-0.550000,0.300000,0.000000,1772849815477.141,0.454408,-0.567692,0.324671,0.000000,0.000000,0.000000,1.000000,position_only
2026-03-07T02:16:55.488807+00:00,1772849815488.805,0.454102,-0.565430,0.325195,-0.369873,0.091736,-0.480225,20244,19158,20259,20015,0.450000,-0.550000,0.300000,0.000000,1772849815485.712,0.454399,-0.567645,0.324721,0.000000,0.000000,0.000000,1.000000,position_only
2026-03-07T02:16:55.498694+00:00,1772849815498.693,0.454102,-0.564941,0.325195,-0.370361,0.104797,-0.487305,20244,19158,20259,20015,0.450000,-0.550000,0.300000,0.000000,1772849815494.249,0.454428,-0.567636,0.324742,0.000000,0.000000,0.000000,1.000000,position_only
2026-03-07T02:16:55.508519+00:00,1772849815508.519,0.454102,-0.565430,0.325195,-0.368652,0.120422,-0.490234,20244,19158,20259,20015,0.450000,-0.550000,0.300000,0.000000,1772849815502.757,0.454467,-0.567604,0.324776,0.000000,0.000000,0.000000,1.000000,position_only
2026-03-07T02:16:55.519134+00:00,1772849815519.133,0.454102,-0.564941,0.325439,-0.380859,0.120178,-0.494385,20244,19158,20259,20015,0.450000,-0.550000,0.300000,0.000000,1772849815511.245,0.454500,-0.567558,0.324818,0.000000,0.000000,0.000000,1.000000,position_only
2026-03-07T02:16:55.528192+00:00,1772849815528.190,0.454102,-0.564941,0.325439,-0.378418,0.117737,-0.503418,20244,19158,20259,20015,0.450000,-0.550000,0.300000,0.000000,1772849815519.706,0.454550,-0.567562,0.324826,0.000000,0.000000,0.000000,1.000000,position_only
2026-03-07T02:16:55.538971+00:00,1772849815538.970,0.454102,-0.564941,0.325439,-0.376953,0.109985,-0.512207,20244,19158,20259,20015,0.450000,-0.550000,0.300000,0.000000,1772849815537.247,0.454590,-0.567520,0.324896,0.000000,0.000000,0.000000,1.000000,position_only
2026-03-07T02:16:55.548917+00:00,1772849815548.915,0.454102,-0.564941,0.325439,-0.369629,0.115601,-0.512695,20244,19158,20259,20015,0.450000,-0.550000,0.300000,0.000000,1772849815545.707,0.454612,-0.567515,0.324939,0.000000,0.000000,0.000000,1.000000,position_only
2026-03-07T02:16:55.558232+00:00,1772849815558.231,0.454346,-0.564941,0.325439,-0.358643,0.108154,-0.530762,20244,19158,20259,20015,0.450000,-0.550000,0.300000,0.000000,1772849815554.332,0.454628,-0.567498,0.324969,0.000000,0.000000,0.000000,1.000000,position_only
2026-03-07T02:16:55.569840+00:00,1772849815569.839,0.454346,-0.564941,0.325684,-0.357422,0.104309,-0.537109,19230,19417,19224,19497,0.450000,-0.550000,0.300000,0.000000,1772849815563.085,0.454705,-0.567483,0.324973,0.000000,0.000000,0.000000,1.000000,position_only
2026-03-07T02:16:55.579768+00:00,1772849815579.767,0.454346,-0.564941,0.325684,-0.368408,0.100464,-0.539062,19357,19301,19378,19336,0.450000,-0.550000,0.300000,0.000000,1772849815571.711,0.454740,-0.567437,0.324995,0.000000,0.000000,0.000000,1.000000,position_only
2026-03-07T02:16:55.589637+00:00,1772849815589.636,0.454346,-0.564941,0.325684,-0.375977,0.107605,-0.530762,19597,19109,19633,19046,0.450000,-0.550000,0.300000,0.000000,1772849815589.125,0.454765,-0.567404,0.325062,0.000000,0.000000,0.000000,1.000000,position_only
2026-03-07T02:16:55.598739+00:00,1772849815598.738,0.454346,-0.564941,0.325684,-0.374023,0.133301,-0.499512,19561,19114,19678,19045,0.450000,-0.550000,0.300000,0.000000,1772849815597.706,0.454782,-0.567394,0.325069,0.000000,0.000000,0.000000,1.000000,position_only
2026-03-07T02:16:55.609379+00:00,1772849815609.378,0.454346,-0.564941,0.325684,-0.380371,0.167725,-0.468506,19407,19332,19501,19175,0.450000,-0.550000,0.300000,0.000000,1772849815606.265,0.454788,-0.567361,0.325061,0.000000,0.000000,0.000000,1.000000,position_only
2026-03-07T02:16:55.621317+00:00,1772849815621.316,0.454346,-0.564941,0.325684,-0.369141,0.211792,-0.447754,19488,19284,19546,19128,0.450000,-0.550000,0.300000,0.000000,1772849815614.827,0.454800,-0.567330,0.325016,0.000000,0.000000,0.000000,1.000000,position_only
2026-03-07T02:16:55.631058+00:00,1772849815631.057,0.454346,-0.564941,0.325684,-0.347900,0.252686,-0.427490,19417,19434,19473,19161,0.450000,-0.550000,0.300000,0.000000,1772849815623.333,0.454802,-0.567305,0.324980,0.000000,0.000000,0.000000,1.000000,position_only
2026-03-07T02:16:55.638959+00:00,1772849815638.958,0.454346,-0.564453,0.325439,-0.310303,0.310303,-0.411865,19427,19497,19486,19115,0.450000,-0.550000,0.300000,0.000000,1772849815631.897,0.454802,-0.567305,0.324980,0.000000,0.000000,0.000000,1.000000,position_only
2026-03-07T02:16:55.649722+00:00,1772849815649.721,0.454590,-0.564941,0.325439,-0.261719,0.363037,-0.392090,19558,19380,19546,19080,0.450000,-0.550000,0.300000,0.000000,1772849815648.902,0.454801,-0.567280,0.324723,0.000000,0.000000,0.000000,1.000000,position_only
2026-03-07T02:16:55.659191+00:00,1772849815659.190,0.454590,-0.564453,0.325195,-0.204102,0.421631,-0.364990,19624,19378,19626,18972,0.450000,-0.550000,0.300000,0.000000,1772849815657.657,0.454764,-0.567270,0.324598,0.000000,0.000000,0.000000,1.000000,position_only
2026-03-07T02:16:55.669487+00:00,1772849815669.486,0.454590,-0.564453,0.325195,-0.150146,0.472900,-0.340820,19675,19353,19676,18948,0.450000,-0.550000,0.300000,0.000000,1772849815666.138,0.454737,-0.567258,0.324453,0.000000,0.000000,0.000000,1.000000,position_only
2026-03-07T02:16:55.679365+00:00,1772849815679.364,0.454590,-0.564941,0.325195,-0.150146,0.472900,-0.340820,19563,19499,19543,19054,0.450000,-0.550000,0.300000,0.000000,1772849815674.645,0.454723,-0.567260,0.324270,0.000000,0.000000,0.000000,1.000000,position_only
2026-03-07T02:16:55.690927+00:00,1772849815690.926,0.454590,-0.564941,0.324951,-0.088623,0.526367,-0.313965,19670,19425,19679,18947,0.450000,-0.550000,0.300000,0.000000,1772849815683.142,0.454707,-0.567273,0.324083,0.000000,0.000000,0.000000,1.000000,position_only
2026-03-07T02:16:55.699277+00:00,1772849815699.276,0.454346,-0.564941,0.324707,-0.022949,0.585938,-0.288574,19606,19523,19623,19031,0.450000,-0.550000,0.300000,0.000000,1772849815691.644,0.454668,-0.567280,0.323897,0.000000,0.000000,0.000000,1.000000,position_only
2026-03-07T02:16:55.709828+00:00,1772849815709.827,0.454346,-0.564941,0.324463,0.038727,0.658203,-0.262207,19561,19603,19544,19120,0.450000,-0.550000,0.300000,0.000000,1772849815708.915,0.454551,-0.567334,0.323476,0.000000,0.000000,0.000000,1.000000,position_only
2026-03-07T02:16:55.718939+00:00,1772849815718.938,0.454346,-0.564941,0.324219,0.092590,0.710449,-0.245728,19744,19455,19716,18955,0.450000,-0.550000,0.300000,0.000000,1772849815717.430,0.454466,-0.567374,0.323241,0.000000,0.000000,0.000000,1.000000,position_only
2026-03-07T02:16:55.729797+00:00,1772849815729.796,0.454346,-0.564941,0.323730,0.153687,0.761230,-0.226074,19677,19523,19642,19085,0.450000,-0.550000,0.300000,0.000000,1772849815725.906,0.454413,-0.567405,0.322941,0.000000,0.000000,0.000000,1.000000,position_only
2026-03-07T02:16:55.740286+00:00,1772849815740.285,0.454346,-0.564941,0.323486,0.203979,0.796875,-0.203857,19694,19536,19688,19073,0.450000,-0.550000,0.300000,0.000000,1772849815734.402,0.454363,-0.567474,0.322609,0.000000,0.000000,0.000000,1.000000,position_only
2026-03-07T02:16:55.748536+00:00,1772849815748.535,0.454102,-0.564941,0.322998,0.241943,0.834473,-0.186646,19779,19397,19713,19155,0.450000,-0.550000,0.300000,0.000000,1772849815742.905,0.454316,-0.567507,0.322237,0.000000,0.000000,0.000000,1.000000,position_only
2026-03-07T02:16:55.760206+00:00,1772849815760.205,0.454102,-0.564941,0.322510,0.263916,0.839355,-0.167358,19872,19322,19866,19026,0.450000,-0.550000,0.300000,0.000000,1772849815751.492,0.454251,-0.567552,0.321899,0.000000,0.000000,0.000000,1.000000,position_only
2026-03-07T02:16:55.769996+00:00,1772849815769.995,0.453857,-0.564941,0.322266,0.266113,0.830078,-0.142822,19803,19388,19789,19165,0.450000,-0.550000,0.300000,0.000000,1772849815768.841,0.454120,-0.567676,0.321201,0.000000,0.000000,0.000000,1.000000,position_only
2026-03-07T02:16:55.779017+00:00,1772849815779.016,0.453857,-0.564941,0.321777,0.259521,0.827148,-0.113281,19831,19356,19866,19150,0.450000,-0.550000,0.300000,0.000000,1772849815777.508,0.454006,-0.567726,0.320842,0.000000,0.000000,0.000000,1.000000,position_only
2026-03-07T02:16:55.789522+00:00,1772849815789.521,0.453613,-0.565430,0.321289,0.241333,0.819336,-0.087646,19848,19357,19897,19156,0.450000,-0.550000,0.300000,0.000000,1772849815786.031,0.453903,-0.567828,0.320400,0.000000,0.000000,0.000000,1.000000,position_only
2026-03-07T02:16:55.800690+00:00,1772849815800.689,0.453613,-0.565430,0.320801,0.217529,0.810059,-0.058563,19760,19456,19814,19288,0.450000,-0.550000,0.300000,0.000000,1772849815794.528,0.453786,-0.567902,0.319985,0.000000,0.000000,0.000000,1.000000,position_only
2026-03-07T02:16:55.810594+00:00,1772849815810.593,0.453369,-0.565430,0.320312,0.191406,0.800293,-0.039459,19717,19543,19817,19299,0.450000,-0.550000,0.300000,0.000000,1772849815803.008,0.453637,-0.567933,0.319611,0.000000,0.000000,0.000000,1.000000,position_only
2026-03-07T02:16:55.819640+00:00,1772849815819.638,0.453125,-0.565918,0.319580,0.166138,0.794434,-0.022964,19886,19354,19973,19216,0.450000,-0.550000,0.300000,0.000000,1772849815811.529,0.453516,-0.568023,0.319149,0.000000,0.000000,0.000000,1.000000,position_only
2026-03-07T02:16:55.829429+00:00,1772849815829.428,0.453125,-0.565918,0.319092,0.129272,0.783203,0.004665,19794,19566,19797,19328,0.450000,-0.550000,0.300000,0.000000,1772849815828.641,0.453192,-0.568216,0.318146,0.000000,0.000000,0.000000,1.000000,position_only
2026-03-07T02:16:55.838565+00:00,1772849815838.565,0.452881,-0.565918,0.318604,0.118103,0.767090,0.019623,19923,19480,19924,19207,0.450000,-0.550000,0.300000,0.000000,1772849815837.153,0.453014,-0.568358,0.317685,0.000000,0.000000,0.000000,1.000000,position_only
2026-03-07T02:16:55.852408+00:00,1772849815852.407,0.452637,-0.565918,0.317871,0.108032,0.753418,0.051117,19926,19510,19873,19279,0.450000,-0.550000,0.300000,0.000000,1772849815845.647,0.452854,-0.568478,0.317227,0.000000,0.000000,0.000000,1.000000,position_only
2026-03-07T02:16:55.860812+00:00,1772849815860.812,0.452393,-0.566406,0.317139,0.105164,0.724609,0.072449,19824,19636,19718,19457,0.450000,-0.550000,0.300000,0.000000,1772849815854.528,0.452715,-0.568601,0.316764,0.000000,0.000000,0.000000,1.000000,position_only
2026-03-07T02:16:55.869938+00:00,1772849815869.938,0.452148,-0.566406,0.316650,0.103149,0.672363,0.084778,20058,19464,19910,19257,0.450000,-0.550000,0.300000,0.000000,1772849815863.139,0.452465,-0.568688,0.316262,0.000000,0.000000,0.000000,1.000000,position_only
2026-03-07T02:16:55.880322+00:00,1772849815880.321,0.451904,-0.566406,0.315918,0.113708,0.627930,0.110840,20021,19483,19899,19287,0.450000,-0.550000,0.300000,0.000000,1772849815880.096,0.452160,-0.569018,0.315142,0.000000,0.000000,0.000000,1.000000,position_only
2026-03-07T02:16:55.891819+00:00,1772849815891.818,0.451660,-0.566895,0.315186,0.119141,0.572266,0.134521,20098,19478,19933,19273,0.450000,-0.550000,0.300000,0.000000,1772849815888.606,0.451974,-0.569132,0.314618,0.000000,0.000000,0.000000,1.000000,position_only
2026-03-07T02:16:55.901029+00:00,1772849815901.028,0.451416,-0.566895,0.314697,0.124390,0.531250,0.160767,20139,19420,20058,19216,0.450000,-0.550000,0.300000,0.000000,1772849815897.318,0.451718,-0.569222,0.314107,0.000000,0.000000,0.000000,1.000000,position_only
2026-03-07T02:16:55.909535+00:00,1772849815909.534,0.451172,-0.567383,0.313965,0.111511,0.493408,0.185791,19940,19608,19892,19433,0.450000,-0.550000,0.300000,0.000000,1772849815905.786,0.451472,-0.569351,0.313564,0.000000,0.000000,0.000000,1.000000,position_only
2026-03-07T02:16:55.920534+00:00,1772849815920.533,0.451172,-0.567383,0.313965,0.111511,0.493408,0.185791,19933,19611,19966,19367,0.450000,-0.550000,0.300000,0.000000,1772849815914.312,0.451250,-0.569513,0.312973,0.000000,0.000000,0.000000,1.000000,position_only
2026-03-07T02:16:55.929776+00:00,1772849815929.775,0.450439,-0.567871,0.312500,0.061646,0.459229,0.212524,19835,19719,19875,19540,0.450000,-0.550000,0.300000,0.000000,1772849815922.862,0.451064,-0.569606,0.312439,0.000000,0.000000,0.000000,1.000000,position_only
2026-03-07T02:16:55.940352+00:00,1772849815940.351,0.450439,-0.567871,0.312500,0.061646,0.459229,0.212524,19967,19589,20030,19394,0.450000,-0.550000,0.300000,0.000000,1772849815940.186,0.450612,-0.569952,0.311256,0.000000,0.000000,0.000000,1.000000,position_only
2026-03-07T02:16:55.949504+00:00,1772849815949.504,0.450195,-0.567871,0.311768,0.023285,0.437256,0.220703,19987,19566,20053,19418,0.450000,-0.550000,0.300000,0.000000,1772849815948.702,0.450113,-0.570328,0.310106,0.000000,0.000000,0.000000,1.000000,position_only
2026-03-07T02:16:55.960420+00:00,1772849815960.419,0.449951,-0.568359,0.311035,-0.022034,0.423340,0.239868,19888,19673,19947,19560,0.450000,-0.550000,0.300000,0.000000,1772849815957.532,0.449891,-0.570480,0.309566,0.000000,0.000000,0.000000,1.000000,position_only
2026-03-07T02:16:55.972629+00:00,1772849815972.627,0.449463,-0.568359,0.310059,-0.070679,0.398193,0.256592,19967,19553,20060,19526,0.450000,-0.550000,0.300000,0.000000,1772849815966.132,0.449590,-0.570676,0.309010,0.000000,0.000000,0.000000,1.000000,position_only
2026-03-07T02:16:55.979613+00:00,1772849815979.612,0.449219,-0.568848,0.309570,-0.062500,0.359863,0.263916,20060,19516,20137,19428,0.450000,-0.550000,0.300000,0.000000,1772849815974.589,0.449368,-0.570864,0.308357,0.000000,0.000000,0.000000,1.000000,position_only
2026-03-07T02:16:55.988776+00:00,1772849815988.775,0.448975,-0.568848,0.308594,-0.190308,0.322998,0.284668,20011,19609,20099,19479,0.450000,-0.550000,0.300000,0.000000,1772849815983.102,0.449117,-0.571015,0.307755,0.000000,0.000000,0.000000,1.000000,position_only
2026-03-07T02:16:55.999454+00:00,1772849815999.454,0.448486,-0.569336,0.307861,-0.231689,0.302734,0.306641,20178,19455,20290,19335,0.450000,-0.550000,0.300000,0.000000,1772849815991.665,0.448919,-0.571173,0.307200,0.000000,0.000000,0.000000,1.000000,position_only
2026-03-07T02:16:56.010070+00:00,1772849816010.070,0.448242,-0.569336,0.307129,-0.276611,0.283203,0.330811,20076,19568,20254,19402,0.450000,-0.550000,0.300000,0.000000,1772849816008.887,0.448371,-0.571610,0.306021,0.000000,0.000000,0.000000,1.000000,position_only
2026-03-07T02:16:56.021254+00:00,1772849816021.253,0.447998,-0.569824,0.306152,-0.323486,0.289307,0.362305,19852,19826,19989,19664,0.450000,-0.550000,0.300000,0.000000,1772849816017.399,0.448143,-0.571778,0.305449,0.000000,0.000000,0.000000,1.000000,position_only
2026-03-07T02:16:56.031052+00:00,1772849816031.052,0.447510,-0.569824,0.305664,-0.364014,0.283936,0.370117,19920,19800,20075,19565,0.450000,-0.550000,0.300000,0.000000,1772849816025.895,0.447865,-0.571955,0.304789,0.000000,0.000000,0.000000,1.000000,position_only
2026-03-07T02:16:56.042536+00:00,1772849816042.535,0.447266,-0.570312,0.304688,-0.398682,0.290039,0.380615,20029,19775,20103,19490,0.450000,-0.550000,0.300000,0.000000,1772849816034.405,0.447539,-0.572097,0.304218,0.000000,0.000000,0.000000,1.000000,position_only
2026-03-07T02:16:56.050812+00:00,1772849816050.811,0.446777,-0.570312,0.303955,-0.412842,0.289551,0.393799,20017,19799,19970,19632,0.450000,-0.550000,0.300000,0.000000,1772849816042.875,0.447294,-0.572337,0.303634,0.000000,0.000000,0.000000,1.000000,position_only
2026-03-07T02:16:56.059991+00:00,1772849816059.990,0.446533,-0.570801,0.303223,-0.421631,0.258789,0.401367,20154,19697,20101,19475,0.450000,-0.550000,0.300000,0.000000,1772849816059.816,0.446810,-0.572765,0.302476,0.000000,0.000000,0.000000,1.000000,position_only
2026-03-07T02:16:56.069852+00:00,1772849816069.851,0.446289,-0.570801,0.302490,-0.420898,0.228516,0.418213,20241,19588,20225,19390,0.450000,-0.550000,0.300000,0.000000,1772849816068.336,0.446502,-0.572963,0.301894,0.000000,0.000000,0.000000,1.000000,position_only
2026-03-07T02:16:56.080346+00:00,1772849816080.345,0.445801,-0.571289,0.301758,-0.427246,0.185547,0.439697,20158,19715,20043,19553,0.450000,-0.550000,0.300000,0.000000,1772849816076.841,0.446279,-0.573159,0.301281,0.000000,0.000000,0.000000,1.000000,position_only
2026-03-07T02:16:56.091029+00:00,1772849816091.029,0.445557,-0.571289,0.301025,-0.425049,0.131348,0.451172,20272,19625,20087,19508,0.450000,-0.550000,0.300000,0.000000,1772849816085.323,0.446026,-0.573303,0.300675,0.000000,0.000000,0.000000,1.000000,position_only
2026-03-07T02:16:56.101691+00:00,1772849816101.690,0.445068,-0.571777,0.300293,-0.418701,0.066711,0.465820,20325,19578,20165,19441,0.450000,-0.550000,0.300000,0.000000,1772849816093.761,0.445734,-0.573485,0.300144,0.000000,0.000000,0.000000,1.000000,position_only
2026-03-07T02:16:56.110006+00:00,1772849816110.005,0.444824,-0.571777,0.299561,-0.412598,0.011681,0.490967,20339,19565,20230,19395,0.450000,-0.550000,0.300000,0.000000,1772849816102.281,0.445472,-0.573722,0.299560,0.000000,0.000000,0.000000,1.000000,position_only
2026-03-07T02:16:56.120979+00:00,1772849816120.978,0.444336,-0.572266,0.298828,-0.418457,-0.028900,0.516602,20280,19603,20246,19425,0.450000,-0.550000,0.300000,0.000000,1772849816119.412,0.444933,-0.574144,0.298429,0.000000,0.000000,0.000000,1.000000,position_only
2026-03-07T02:16:56.129608+00:00,1772849816129.607,0.444092,-0.572266,0.298096,-0.432861,-0.058716,0.541504,20105,19803,20085,19575,0.450000,-0.550000,0.300000,0.000000,1772849816127.920,0.444650,-0.574353,0.297821,0.000000,0.000000,0.000000,1.000000,position_only
2026-03-07T02:16:56.140260+00:00,1772849816140.259,0.443604,-0.572754,0.297607,-0.447754,-0.081238,0.546387,20133,19762,20083,19585,0.450000,-0.550000,0.300000,0.000000,1772849816136.415,0.444400,-0.574524,0.297244,0.000000,0.000000,0.000000,1.000000,position_only
2026-03-07T02:16:56.151440+00:00,1772849816151.440,0.443848,-0.572754,0.297607,-0.447754,-0.081238,0.546387,20300,19578,20294,19395,0.450000,-0.550000,0.300000,0.000000,1772849816144.969,0.444188,-0.574676,0.296697,0.000000,0.000000,0.000000,1.000000,position_only
2026-03-07T02:16:56.160509+00:00,1772849816160.508,0.443359,-0.572754,0.296875,-0.466797,-0.111084,0.561523,20315,19589,20325,19342,0.450000,-0.550000,0.300000,0.000000,1772849816153.708,0.443918,-0.574830,0.296130,0.000000,0.000000,0.000000,1.000000,position_only
2026-03-07T02:16:56.169907+00:00,1772849816169.906,0.443115,-0.573242,0.296143,-0.481445,-0.122314,0.589355,20223,19606,20242,19515,0.450000,-0.550000,0.300000,0.000000,1772849816162.677,0.443639,-0.575071,0.295606,0.000000,0.000000,0.000000,1.000000,position_only
2026-03-07T02:16:56.179845+00:00,1772849816179.845,0.442871,-0.573730,0.295654,-0.502930,-0.143311,0.619629,20175,19691,20223,19494,0.450000,-0.550000,0.300000,0.000000,1772849816171.356,0.443369,-0.575259,0.295106,0.000000,0.000000,0.000000,1.000000,position_only
2026-03-07T02:16:56.191355+00:00,1772849816191.354,0.442383,-0.573730,0.294922,-0.537109,-0.174683,0.637207,20369,19494,20414,19308,0.450000,-0.550000,0.300000,0.000000,1772849816188.485,0.442923,-0.575642,0.293942,0.000000,0.000000,0.000000,1.000000,position_only
2026-03-07T02:16:56.200960+00:00,1772849816200.959,0.442139,-0.573730,0.294434,-0.559082,-0.191284,0.663086,20078,19808,20145,19581,0.450000,-0.550000,0.300000,0.000000,1772849816197.089,0.442640,-0.575858,0.293440,0.000000,0.000000,0.000000,1.000000,position_only
2026-03-07T02:16:56.210985+00:00,1772849816210.984,0.441895,-0.574219,0.293945,-0.585938,-0.202515,0.687988,20172,19751,20186,19530,0.450000,-0.550000,0.300000,0.000000,1772849816205.879,0.442411,-0.576014,0.292897,0.000000,0.000000,0.000000,1.000000,position_only
2026-03-07T02:16:56.219344+00:00,1772849816219.343,0.441650,-0.574219,0.293213,-0.596680,-0.211304,0.699707,20296,19614,20285,19447,0.450000,-0.550000,0.300000,0.000000,1772849816214.396,0.442199,-0.576198,0.292398,0.000000,0.000000,0.000000,1.000000,position_only
2026-03-07T02:16:56.230807+00:00,1772849816230.806,0.441406,-0.574707,0.292725,-0.607422,-0.226196,0.722656,20243,19654,20236,19496,0.450000,-0.550000,0.300000,0.000000,1772849816222.876,0.441981,-0.576423,0.291913,0.000000,0.000000,0.000000,1.000000,position_only
2026-03-07T02:16:56.241371+00:00,1772849816241.371,0.440918,-0.574707,0.291992,-0.618164,-0.244141,0.742188,20273,19677,20230,19470,0.450000,-0.550000,0.300000,0.000000,1772849816239.918,0.441218,-0.576915,0.290353,0.000000,0.000000,0.000000,1.000000,position_only
2026-03-07T02:16:56.249855+00:00,1772849816249.854,0.440674,-0.575195,0.291504,-0.626465,-0.264893,0.760742,20347,19615,20232,19496,0.450000,-0.550000,0.300000,0.000000,1772849816248.741,0.441218,-0.576915,0.290353,0.000000,0.000000,0.000000,1.000000,position_only
2026-03-07T02:16:56.260460+00:00,1772849816260.458,0.440430,-0.575195,0.291016,-0.628418,-0.300781,0.776367,20352,19611,20245,19491,0.450000,-0.550000,0.300000,0.000000,1772849816257.326,0.440852,-0.577259,0.289355,0.000000,0.000000,0.000000,1.000000,position_only
2026-03-07T02:16:56.272232+00:00,1772849816272.231,0.440186,-0.575195,0.290283,-0.638672,-0.349121,0.792969,20240,19698,20153,19611,0.450000,-0.550000,0.300000,0.000000,1772849816265.832,0.440620,-0.577442,0.288877,0.000000,0.000000,0.000000,1.000000,position_only
2026-03-07T02:16:56.281726+00:00,1772849816281.726,0.439941,-0.575684,0.289551,-0.651855,-0.402832,0.806641,20358,19559,20344,19470,0.450000,-0.550000,0.300000,0.000000,1772849816274.569,0.440417,-0.577633,0.288480,0.000000,0.000000,0.000000,1.000000,position_only
2026-03-07T02:16:56.290839+00:00,1772849816290.839,0.439697,-0.575684,0.289062,-0.683594,-0.447510,0.831055,20341,19558,20317,19540,0.450000,-0.550000,0.300000,0.000000,1772849816283.083,0.440235,-0.577794,0.288016,0.000000,0.000000,0.000000,1.000000,position_only
2026-03-07T02:16:56.300802+00:00,1772849816300.802,0.439453,-0.576172,0.288330,-0.725098,-0.492920,0.845703,20067,19831,20072,19800,0.450000,-0.550000,0.300000,0.000000,1772849816300.066,0.439892,-0.578105,0.287043,0.000000,0.000000,0.000000,1.000000,position_only
2026-03-07T02:16:56.310080+00:00,1772849816310.080,0.439209,-0.576172,0.287842,-0.759766,-0.522949,0.844727,20092,19837,20099,19766,0.450000,-0.550000,0.300000,0.000000,1772849816308.778,0.439677,-0.578209,0.286613,0.000000,0.000000,0.000000,1.000000,position_only
2026-03-07T02:16:56.321633+00:00,1772849816321.632,0.438965,-0.576172,0.287354,-0.783691,-0.540039,0.854004,20363,19623,20413,19427,0.450000,-0.550000,0.300000,0.000000,1772849816317.287,0.439521,-0.578334,0.286203,0.000000,0.000000,0.000000,1.000000,position_only
2026-03-07T02:16:56.330775+00:00,1772849816330.775,0.438721,-0.576660,0.286621,-0.797363,-0.541992,0.878418,20298,19721,20326,19505,0.450000,-0.550000,0.300000,0.000000,1772849816325.960,0.439334,-0.578482,0.285740,0.000000,0.000000,0.000000,1.000000,position_only
2026-03-07T02:16:56.339771+00:00,1772849816339.770,0.438721,-0.576660,0.286621,-0.797363,-0.541992,0.878418,20191,19825,20224,19629,0.450000,-0.550000,0.300000,0.000000,1772849816334.469,0.439183,-0.578610,0.285351,0.000000,0.000000,0.000000,1.000000,position_only
2026-03-07T02:16:56.351174+00:00,1772849816351.174,0.438477,-0.577148,0.285889,-0.804199,-0.533691,0.899902,20312,19743,20329,19479,0.450000,-0.550000,0.300000,0.000000,1772849816343.257,0.439028,-0.578739,0.284915,0.000000,0.000000,0.000000,1.000000,position_only
2026-03-07T02:16:56.361203+00:00,1772849816361.202,0.438232,-0.577148,0.285400,-0.807129,-0.530762,0.915039,20329,19713,20298,19539,0.450000,-0.550000,0.300000,0.000000,1772849816360.240,0.438722,-0.578955,0.284161,0.000000,0.000000,0.000000,1.000000,position_only
2026-03-07T02:16:56.369866+00:00,1772849816369.865,0.438232,-0.577148,0.284912,-0.812988,-0.538086,0.935059,20383,19700,20413,19386,0.450000,-0.550000,0.300000,0.000000,1772849816368.770,0.438620,-0.579065,0.283761,0.000000,0.000000,0.000000,1.000000,position_only
2026-03-07T02:16:56.380294+00:00,1772849816380.293,0.437988,-0.577148,0.284424,-0.810059,-0.544922,0.954590,20301,19749,20260,19565,0.450000,-0.550000,0.300000,0.000000,1772849816377.331,0.438510,-0.579191,0.283355,0.000000,0.000000,0.000000,1.000000,position_only
2026-03-07T02:16:56.391819+00:00,1772849816391.819,0.437744,-0.577148,0.283936,-0.803223,-0.541992,0.975098,20411,19657,20457,19341,0.450000,-0.550000,0.300000,0.000000,1772849816385.981,0.438445,-0.579330,0.282961,0.000000,0.000000,0.000000,1.000000,position_only
2026-03-07T02:16:56.401617+00:00,1772849816401.617,0.437744,-0.577637,0.283447,-0.796387,-0.533691,1.001953,20184,19877,20210,19600,0.450000,-0.550000,0.300000,0.000000,1772849816394.532,0.438350,-0.579415,0.282605,0.000000,0.000000,0.000000,1.000000,position_only
2026-03-07T02:16:56.410778+00:00,1772849816410.778,0.437500,-0.577637,0.282959,-0.791504,-0.519043,1.014648,20303,19769,20366,19449,0.450000,-0.550000,0.300000,0.000000,1772849816403.022,0.438233,-0.579527,0.282266,0.000000,0.000000,0.000000,1.000000,position_only
2026-03-07T02:16:56.420503+00:00,1772849816420.502,0.437500,-0.577637,0.282471,-0.784180,-0.499268,1.030273,20257,19850,20294,19489,0.450000,-0.550000,0.300000,0.000000,1772849816420.334,0.438078,-0.579699,0.281641,0.000000,0.000000,0.000000,1.000000,position_only
2026-03-07T02:16:56.431331+00:00,1772849816431.330,0.437500,-0.577637,0.282227,-0.770996,-0.475098,1.042969,20230,19835,20244,19574,0.450000,-0.550000,0.300000,0.000000,1772849816428.914,0.437955,-0.579844,0.281300,0.000000,0.000000,0.000000,1.000000,position_only
2026-03-07T02:16:56.440791+00:00,1772849816440.791,0.437256,-0.578125,0.281738,-0.761719,-0.462891,1.055664,20311,19795,20274,19501,0.450000,-0.550000,0.300000,0.000000,1772849816437.654,0.437888,-0.579940,0.280965,0.000000,0.000000,0.000000,1.000000,position_only
2026-03-07T02:16:56.451170+00:00,1772849816451.170,0.437256,-0.578125,0.281250,-0.746094,-0.459961,1.068359,20381,19705,20366,19433,0.450000,-0.550000,0.300000,0.000000,1772849816446.207,0.437765,-0.579973,0.280687,0.000000,0.000000,0.000000,1.000000,position_only
2026-03-07T02:16:56.460666+00:00,1772849816460.665,0.437256,-0.578125,0.281006,-0.739258,-0.461426,1.088867,20419,19639,20405,19421,0.450000,-0.550000,0.300000,0.000000,1772849816454.983,0.437729,-0.580037,0.280398,0.000000,0.000000,0.000000,1.000000,position_only
2026-03-07T02:16:56.470283+00:00,1772849816470.282,0.437012,-0.578125,0.280762,-0.742188,-0.473877,1.113281,20289,19796,20263,19534,0.450000,-0.550000,0.300000,0.000000,1772849816463.708,0.437676,-0.580075,0.280112,0.000000,0.000000,0.000000,1.000000,position_only
2026-03-07T02:16:56.482339+00:00,1772849816482.339,0.437012,-0.578125,0.280273,-0.744141,-0.485107,1.123047,20272,19788,20279,19542,0.450000,-0.550000,0.300000,0.000000,1772849816481.069,0.437661,-0.580164,0.279563,0.000000,0.000000,0.000000,1.000000,position_only
