time_wall,time_ms,state_x,state_y,state_z,roll,pitch,yaw,u1_16,u2_16,u3_16,u4_16,setpoint_x,setpoint_y,setpoint_z,setpoint_yaw_deg,mocap_time_ms,mocap_x,mocap_y,mocap_z,mocap_qx,mocap_qy,mocap_qz,mocap_qw,mocap_mode
2026-03-07T00:43:29.825042+00:00,1772844209825.039,0.447754,-0.540527,0.324707,0.268311,0.069031,-1.909180,20800,18529,21078,18216,0.450000,-0.550000,0.300000,0.000000,1772844209823.467,0.447251,-0.538817,0.324686,0.000000,0.000000,0.000000,1.000000,position_only
2026-03-07T00:43:29.835355+00:00,1772844209835.354,0.447754,-0.540527,0.324707,0.274902,0.080994,-1.914062,20800,18529,21078,18216,0.450000,-0.550000,0.300000,0.000000,1772844209831.933,0.447287,-0.538757,0.324702,0.000000,0.000000,0.000000,1.000000,position_only
2026-03-07T00:43:29.844501+00:00,1772844209844.501,0.447754,-0.540527,0.324707,0.278076,0.074951,-1.921875,20800,18529,21078,18216,0.450000,-0.550000,0.300000,0.000000,1772844209840.506,0.447321,-0.538703,0.324726,0.000000,0.000000,0.000000,1.000000,position_only
2026-03-07T00:43:29.854070+00:00,1772844209854.069,0.447754,-0.540527,0.324707,0.286377,0.078857,-1.915039,20800,18529,21078,18216,0.450000,-0.550000,0.300000,0.000000,1772844209849.000,0.447356,-0.538653,0.324770,0.000000,0.000000,0.000000,1.000000,position_only
2026-03-07T00:43:29.864384+00:00,1772844209864.384,0.447754,-0.540527,0.324707,0.297119,0.073914,-1.916016,20800,18529,21078,18216,0.450000,-0.550000,0.300000,0.000000,1772844209857.739,0.447488,-0.538557,0.324776,0.000000,0.000000,0.000000,1.000000,position_only
2026-03-07T00:43:29.874125+00:00,1772844209874.124,0.447754,-0.540527,0.324951,0.309082,0.064148,-1.922852,20800,18529,21078,18216,0.450000,-0.550000,0.300000,0.000000,1772844209866.467,0.447494,-0.538501,0.324820,0.000000,0.000000,0.000000,1.000000,position_only
2026-03-07T00:43:29.884642+00:00,1772844209884.642,0.447754,-0.540527,0.324951,0.311279,0.058167,-1.929688,20800,18529,21078,18216,0.450000,-0.550000,0.300000,0.000000,1772844209883.476,0.447563,-0.538397,0.324852,0.000000,0.000000,0.000000,1.000000,position_only
2026-03-07T00:43:29.894725+00:00,1772844209894.725,0.447998,-0.540039,0.324951,0.320557,0.068237,-1.939453,20800,18529,21078,18216,0.450000,-0.550000,0.300000,0.000000,1772844209892.035,0.447607,-0.538355,0.324864,0.000000,0.000000,0.000000,1.000000,position_only
2026-03-07T00:43:29.904223+00:00,1772844209904.222,0.447998,-0.540039,0.324951,0.334473,0.097107,-1.943359,20800,18529,21078,18216,0.450000,-0.550000,0.300000,0.000000,1772844209900.529,0.447631,-0.538333,0.324890,0.000000,0.000000,0.000000,1.000000,position_only
2026-03-07T00:43:29.914416+00:00,1772844209914.416,0.447998,-0.540039,0.324951,0.338623,0.109314,-1.948242,20800,18529,21078,18216,0.450000,-0.550000,0.300000,0.000000,1772844209909.028,0.447650,-0.538295,0.324904,0.000000,0.000000,0.000000,1.000000,position_only
2026-03-07T00:43:29.924745+00:00,1772844209924.744,0.447998,-0.540039,0.324951,0.344482,0.101624,-1.954102,20800,18529,21078,18216,0.450000,-0.550000,0.300000,0.000000,1772844209917.589,0.447676,-0.538234,0.324911,0.000000,0.000000,0.000000,1.000000,position_only
2026-03-07T00:43:29.934078+00:00,1772844209934.078,0.447998,-0.540039,0.324951,0.346924,0.104248,-1.963867,20800,18529,21078,18216,0.450000,-0.550000,0.300000,0.000000,1772844209926.083,0.447661,-0.538170,0.324923,0.000000,0.000000,0.000000,1.000000,position_only
2026-03-07T00:43:29.944325+00:00,1772844209944.324,0.447998,-0.540039,0.324951,0.340576,0.088623,-1.959961,20800,18529,21078,18216,0.450000,-0.550000,0.300000,0.000000,1772844209943.245,0.447704,-0.538044,0.324953,0.000000,0.000000,0.000000,1.000000,position_only
2026-03-07T00:43:29.954767+00:00,1772844209954.766,0.447998,-0.540039,0.324951,0.326416,0.090210,-1.957031,20800,18529,21078,18216,0.450000,-0.550000,0.300000,0.000000,1772844209951.762,0.447686,-0.537981,0.324980,0.000000,0.000000,0.000000,1.000000,position_only
2026-03-07T00:43:29.965174+00:00,1772844209965.173,0.447998,-0.540039,0.324951,0.325195,0.086670,-1.957031,20800,18529,21078,18216,0.450000,-0.550000,0.300000,0.000000,1772844209960.284,0.447679,-0.537949,0.324967,0.000000,0.000000,0.000000,1.000000,position_only
2026-03-07T00:43:29.974962+00:00,1772844209974.961,0.447998,-0.539551,0.324951,0.324463,0.084045,-1.961914,20800,18529,21078,18216,0.450000,-0.550000,0.300000,0.000000,1772844209968.766,0.447690,-0.537904,0.324974,0.000000,0.000000,0.000000,1.000000,position_only
2026-03-07T00:43:29.983908+00:00,1772844209983.907,0.447998,-0.539551,0.324951,0.321533,0.086060,-1.962891,20800,18529,21078,18216,0.450000,-0.550000,0.300000,0.000000,1772844209977.261,0.447697,-0.537835,0.324965,0.000000,0.000000,0.000000,1.000000,position_only
2026-03-07T00:43:29.995253+00:00,1772844209995.252,0.447998,-0.539551,0.324951,0.318604,0.099487,-1.963867,20800,18529,21078,18216,0.450000,-0.550000,0.300000,0.000000,1772844209994.355,0.447707,-0.537763,0.324949,0.000000,0.000000,0.000000,1.000000,position_only
2026-03-07T00:43:30.004272+00:00,1772844210004.271,0.447998,-0.539551,0.324951,0.317627,0.114136,-1.958984,20800,18529,21078,18216,0.450000,-0.550000,0.300000,0.000000,1772844210002.822,0.447646,-0.537712,0.324956,0.000000,0.000000,0.000000,1.000000,position_only
2026-03-07T00:43:30.014736+00:00,1772844210014.736,0.447998,-0.539551,0.324951,0.319824,0.118103,-1.951172,20800,18529,21078,18216,0.450000,-0.550000,0.300000,0.000000,1772844210011.375,0.447660,-0.537650,0.324936,0.000000,0.000000,0.000000,1.000000,position_only
2026-03-07T00:43:30.024638+00:00,1772844210024.638,0.447998,-0.539551,0.324951,0.318848,0.118713,-1.944336,20800,18529,21078,18216,0.450000,-0.550000,0.300000,0.000000,1772844210019.869,0.447631,-0.537601,0.324938,0.000000,0.000000,0.000000,1.000000,position_only
2026-03-07T00:43:30.035115+00:00,1772844210035.114,0.447998,-0.539551,0.324951,0.322510,0.133911,-1.940430,20800,18529,21078,18216,0.450000,-0.550000,0.300000,0.000000,1772844210028.350,0.447634,-0.537553,0.324940,0.000000,0.000000,0.000000,1.000000,position_only
2026-03-07T00:43:30.044924+00:00,1772844210044.923,0.447998,-0.539062,0.324951,0.323730,0.121643,-1.941406,20800,18529,21078,18216,0.450000,-0.550000,0.300000,0.000000,1772844210036.929,0.447603,-0.537526,0.324932,0.000000,0.000000,0.000000,1.000000,position_only
2026-03-07T00:43:30.054731+00:00,1772844210054.730,0.447998,-0.539062,0.324951,0.329346,0.106445,-1.944336,20800,18529,21078,18216,0.450000,-0.550000,0.300000,0.000000,1772844210053.938,0.447546,-0.537410,0.324916,0.000000,0.000000,0.000000,1.000000,position_only
2026-03-07T00:43:30.065365+00:00,1772844210065.364,0.447998,-0.539062,0.324951,0.333252,0.096375,-1.953125,20800,18529,21078,18216,0.450000,-0.550000,0.300000,0.000000,1772844210062.475,0.447543,-0.537317,0.324956,0.000000,0.000000,0.000000,1.000000,position_only
2026-03-07T00:43:30.075243+00:00,1772844210075.242,0.447998,-0.539062,0.324951,0.342529,0.070374,-1.961914,20800,18529,21078,18216,0.450000,-0.550000,0.300000,0.000000,1772844210070.948,0.447529,-0.537275,0.324945,0.000000,0.000000,0.000000,1.000000,position_only
2026-03-07T00:43:30.084624+00:00,1772844210084.624,0.447998,-0.539062,0.324951,0.343994,0.062988,-1.953125,20800,18529,21078,18216,0.450000,-0.550000,0.300000,0.000000,1772844210079.468,0.447525,-0.537234,0.324945,0.000000,0.000000,0.000000,1.000000,position_only
2026-03-07T00:43:30.094643+00:00,1772844210094.643,0.447754,-0.539062,0.324951,0.341064,0.051453,-1.953125,20800,18529,21078,18216,0.450000,-0.550000,0.300000,0.000000,1772844210087.982,0.447427,-0.537188,0.324960,0.000000,0.000000,0.000000,1.000000,position_only
2026-03-07T00:43:30.104153+00:00,1772844210104.153,0.447754,-0.539062,0.324951,0.344482,0.051208,-1.957031,20800,18529,21078,18216,0.450000,-0.550000,0.300000,0.000000,1772844210096.486,0.447402,-0.537167,0.324968,0.000000,0.000000,0.000000,1.000000,position_only
2026-03-07T00:43:30.114901+00:00,1772844210114.900,0.447754,-0.539062,0.324951,0.337646,0.039337,-1.952148,20800,18529,21078,18216,0.450000,-0.550000,0.300000,0.000000,1772844210113.466,0.447330,-0.537045,0.324972,0.000000,0.000000,0.000000,1.000000,position_only
2026-03-07T00:43:30.124857+00:00,1772844210124.856,0.447754,-0.539062,0.324951,0.322021,0.019287,-1.952148,20800,18529,21078,18216,0.450000,-0.550000,0.300000,0.000000,1772844210121.955,0.447283,-0.536986,0.324964,0.000000,0.000000,0.000000,1.000000,position_only
2026-03-07T00:43:30.135329+00:00,1772844210135.329,0.447754,-0.539062,0.324951,0.317627,0.012726,-1.947266,20800,18529,21078,18216,0.450000,-0.550000,0.300000,0.000000,1772844210130.445,0.447235,-0.536949,0.324972,0.000000,0.000000,0.000000,1.000000,position_only
2026-03-07T00:43:30.145114+00:00,1772844210145.114,0.447754,-0.538574,0.324951,0.324463,0.000480,-1.944336,20800,18529,21078,18216,0.450000,-0.550000,0.300000,0.000000,1772844210139.268,0.447221,-0.536933,0.324962,0.000000,0.000000,0.000000,1.000000,position_only
2026-03-07T00:43:30.154936+00:00,1772844210154.935,0.447510,-0.538574,0.325195,0.330811,0.002148,-1.937500,20800,18529,21078,18216,0.450000,-0.550000,0.300000,0.000000,1772844210147.703,0.447158,-0.536907,0.324958,0.000000,0.000000,0.000000,1.000000,position_only
2026-03-07T00:43:30.164655+00:00,1772844210164.654,0.447510,-0.538574,0.325195,0.332764,-0.003353,-1.927734,20800,18529,21078,18216,0.450000,-0.550000,0.300000,0.000000,1772844210156.184,0.447108,-0.536847,0.324985,0.000000,0.000000,0.000000,1.000000,position_only
2026-03-07T00:43:30.174840+00:00,1772844210174.839,0.447510,-0.538574,0.325195,0.326172,0.009125,-1.920898,20800,18529,21078,18216,0.450000,-0.550000,0.300000,0.000000,1772844210173.420,0.447000,-0.536703,0.325009,0.000000,0.000000,0.000000,1.000000,position_only
2026-03-07T00:43:30.185224+00:00,1772844210185.223,0.447510,-0.538574,0.325195,0.317383,0.014641,-1.914062,20800,18529,21078,18216,0.450000,-0.550000,0.300000,0.000000,1772844210181.922,0.446931,-0.536685,0.325001,0.000000,0.000000,0.000000,1.000000,position_only
2026-03-07T00:43:30.194952+00:00,1772844210194.951,0.447510,-0.538574,0.325195,0.316895,0.023056,-1.906250,20800,18529,21078,18216,0.450000,-0.550000,0.300000,0.000000,1772844210190.424,0.446859,-0.536640,0.325030,0.000000,0.000000,0.000000,1.000000,position_only
2026-03-07T00:43:30.205622+00:00,1772844210205.621,0.447266,-0.538574,0.325195,0.320557,0.024277,-1.897461,20800,18529,21078,18216,0.450000,-0.550000,0.300000,0.000000,1772844210199.021,0.446791,-0.536570,0.325054,0.000000,0.000000,0.000000,1.000000,position_only
2026-03-07T00:43:30.214746+00:00,1772844210214.745,0.447266,-0.538574,0.325195,0.337158,-0.000269,-1.896484,20800,18529,21078,18216,0.450000,-0.550000,0.300000,0.000000,1772844210207.623,0.446689,-0.536551,0.325022,0.000000,0.000000,0.000000,1.000000,position_only
2026-03-07T00:43:30.225449+00:00,1772844210225.448,0.447266,-0.538574,0.325195,0.351074,-0.012810,-1.889648,20800,18529,21078,18216,0.450000,-0.550000,0.300000,0.000000,1772844210224.708,0.446566,-0.536483,0.325047,0.000000,0.000000,0.000000,1.000000,position_only
2026-03-07T00:43:30.234576+00:00,1772844210234.575,0.447021,-0.538086,0.325195,0.343994,-0.022537,-1.878906,20800,18529,21078,18216,0.450000,-0.550000,0.300000,0.000000,1772844210233.221,0.446526,-0.536435,0.325049,0.000000,0.000000,0.000000,1.000000,position_only
2026-03-07T00:43:30.245029+00:00,1772844210245.028,0.447021,-0.538086,0.325195,0.329102,-0.029999,-1.865234,20800,18529,21078,18216,0.450000,-0.550000,0.300000,0.000000,1772844210241.789,0.446437,-0.536376,0.325074,0.000000,0.000000,0.000000,1.000000,position_only
2026-03-07T00:43:30.255584+00:00,1772844210255.583,0.447021,-0.538086,0.325195,0.310547,-0.051727,-1.857422,20800,18529,21078,18216,0.450000,-0.550000,0.300000,0.000000,1772844210250.379,0.446431,-0.536363,0.325073,0.000000,0.000000,0.000000,1.000000,position_only
2026-03-07T00:43:30.265756+00:00,1772844210265.756,0.446777,-0.538086,0.325195,0.303223,-0.072144,-1.848633,20800,18529,21078,18216,0.450000,-0.550000,0.300000,0.000000,1772844210258.945,0.446431,-0.536363,0.325073,0.000000,0.000000,0.000000,1.000000,position_only
2026-03-07T00:43:30.275705+00:00,1772844210275.704,0.446777,-0.538086,0.325439,0.302979,-0.089294,-1.837891,20800,18529,21078,18216,0.450000,-0.550000,0.300000,0.000000,1772844210267.455,0.446266,-0.536280,0.325093,0.000000,0.000000,0.000000,1.000000,position_only
2026-03-07T00:43:30.285563+00:00,1772844210285.563,0.446777,-0.538086,0.325439,0.300049,-0.090088,-1.832031,20800,18529,21078,18216,0.450000,-0.550000,0.300000,0.000000,1772844210284.502,0.446122,-0.536207,0.325112,0.000000,0.000000,0.000000,1.000000,position_only
2026-03-07T00:43:30.294627+00:00,1772844210294.626,0.446533,-0.538086,0.325439,0.293213,-0.082092,-1.824219,20800,18529,21078,18216,0.450000,-0.550000,0.300000,0.000000,1772844210293.126,0.446048,-0.536149,0.325120,0.000000,0.000000,0.000000,1.000000,position_only
2026-03-07T00:43:30.305225+00:00,1772844210305.225,0.446533,-0.538086,0.325439,0.292480,-0.080261,-1.815430,20800,18529,21078,18216,0.450000,-0.550000,0.300000,0.000000,1772844210301.684,0.445998,-0.536113,0.325123,0.000000,0.000000,0.000000,1.000000,position_only
2026-03-07T00:43:30.315629+00:00,1772844210315.629,0.446533,-0.538086,0.325439,0.302246,-0.090942,-1.807617,20800,18529,21078,18216,0.450000,-0.550000,0.300000,0.000000,1772844210310.218,0.445900,-0.536116,0.325111,0.000000,0.000000,0.000000,1.000000,position_only
2026-03-07T00:43:30.326080+00:00,1772844210326.079,0.446289,-0.537598,0.325439,0.305908,-0.092163,-1.794922,20800,18529,21078,18216,0.450000,-0.550000,0.300000,0.000000,1772844210318.717,0.445742,-0.536042,0.325137,0.000000,0.000000,0.000000,1.000000,position_only
2026-03-07T00:43:30.335373+00:00,1772844210335.373,0.446289,-0.537598,0.325439,0.301758,-0.089417,-1.784180,20800,18529,21078,18216,0.450000,-0.550000,0.300000,0.000000,1772844210327.330,0.445654,-0.535988,0.325121,0.000000,0.000000,0.000000,1.000000,position_only
2026-03-07T00:43:30.345980+00:00,1772844210345.979,0.446289,-0.537598,0.325439,0.308350,-0.091248,-1.775391,20800,18529,21078,18216,0.450000,-0.550000,0.300000,0.000000,1772844210344.677,0.445503,-0.535884,0.325147,0.000000,0.000000,0.000000,1.000000,position_only
2026-03-07T00:43:30.355751+00:00,1772844210355.751,0.446045,-0.537598,0.325439,0.311279,-0.103027,-1.762695,20800,18529,21078,18216,0.450000,-0.550000,0.300000,0.000000,1772844210353.166,0.445459,-0.535877,0.325121,0.000000,0.000000,0.000000,1.000000,position_only
2026-03-07T00:43:30.365563+00:00,1772844210365.563,0.446045,-0.537598,0.325439,0.322266,-0.108398,-1.753906,20800,18529,21078,18216,0.450000,-0.550000,0.300000,0.000000,1772844210361.644,0.445369,-0.535818,0.325118,0.000000,0.000000,0.000000,1.000000,position_only
2026-03-07T00:43:30.375689+00:00,1772844210375.688,0.446045,-0.537598,0.325439,0.333252,-0.123657,-1.739258,20800,18529,21078,18216,0.450000,-0.550000,0.300000,0.000000,1772844210370.188,0.445290,-0.535776,0.325104,0.000000,0.000000,0.000000,1.000000,position_only
2026-03-07T00:43:30.386124+00:00,1772844210386.123,0.445801,-0.537598,0.325439,0.335938,-0.159302,-1.726562,20800,18529,21078,18216,0.450000,-0.550000,0.300000,0.000000,1772844210378.703,0.445229,-0.535757,0.325099,0.000000,0.000000,0.000000,1.000000,position_only
2026-03-07T00:43:30.395910+00:00,1772844210395.910,0.445801,-0.537598,0.325195,0.337158,-0.170166,-1.709961,20800,18529,21078,18216,0.450000,-0.550000,0.300000,0.000000,1772844210395.702,0.445093,-0.535624,0.325078,0.000000,0.000000,0.000000,1.000000,position_only
2026-03-07T00:43:30.405423+00:00,1772844210405.421,0.445801,-0.537598,0.325195,0.325928,-0.197876,-1.705078,20800,18529,21078,18216,0.450000,-0.550000,0.300000,0.000000,1772844210404.212,0.445014,-0.535605,0.325051,0.000000,0.000000,0.000000,1.000000,position_only
2026-03-07T00:43:30.415674+00:00,1772844210415.673,0.445557,-0.537598,0.325195,0.320068,-0.199219,-1.687500,20800,18529,21078,18216,0.450000,-0.550000,0.300000,0.000000,1772844210412.946,0.444916,-0.535585,0.325025,0.000000,0.000000,0.000000,1.000000,position_only
2026-03-07T00:43:30.425644+00:00,1772844210425.644,0.445557,-0.537109,0.325195,0.323486,-0.189819,-1.659180,20800,18529,21078,18216,0.450000,-0.550000,0.300000,0.000000,1772844210421.453,0.444829,-0.535542,0.325002,0.000000,0.000000,0.000000,1.000000,position_only
2026-03-07T00:43:30.436301+00:00,1772844210436.301,0.445312,-0.537109,0.325195,0.329590,-0.170044,-1.638672,20800,18529,21078,18216,0.450000,-0.550000,0.300000,0.000000,1772844210430.068,0.444776,-0.535471,0.324983,0.000000,0.000000,0.000000,1.000000,position_only
2026-03-07T00:43:30.444930+00:00,1772844210444.930,0.445312,-0.537109,0.325195,0.341309,-0.158203,-1.618164,20800,18529,21078,18216,0.450000,-0.550000,0.300000,0.000000,1772844210438.610,0.444696,-0.535431,0.324947,0.000000,0.000000,0.000000,1.000000,position_only
2026-03-07T00:43:30.455732+00:00,1772844210455.732,0.445312,-0.537109,0.325195,0.350586,-0.157837,-1.594727,20800,18529,21078,18216,0.450000,-0.550000,0.300000,0.000000,1772844210447.161,0.444629,-0.535394,0.324910,0.000000,0.000000,0.000000,1.000000,position_only
2026-03-07T00:43:30.466303+00:00,1772844210466.302,0.445068,-0.537109,0.325195,0.352051,-0.167236,-1.577148,20800,18529,21078,18216,0.450000,-0.550000,0.300000,0.000000,1772844210464.322,0.444447,-0.535300,0.324885,0.000000,0.000000,0.000000,1.000000,position_only
2026-03-07T00:43:30.475704+00:00,1772844210475.703,0.445068,-0.537109,0.324951,0.343018,-0.185303,-1.567383,20800,18529,21078,18216,0.450000,-0.550000,0.300000,0.000000,1772844210472.759,0.444359,-0.535249,0.324869,0.000000,0.000000,0.000000,1.000000,position_only
2026-03-07T00:43:30.486334+00:00,1772844210486.333,0.445068,-0.537109,0.324951,0.339355,-0.201538,-1.563477,20800,18529,21078,18216,0.450000,-0.550000,0.300000,0.000000,1772844210481.278,0.444264,-0.535198,0.324863,0.000000,0.000000,0.000000,1.000000,position_only
2026-03-07T00:43:30.495486+00:00,1772844210495.486,0.444824,-0.537109,0.324951,0.348877,-0.201904,-1.547852,20800,18529,21078,18216,0.450000,-0.550000,0.300000,0.000000,1772844210489.759,0.444218,-0.535123,0.324870,0.000000,0.000000,0.000000,1.000000,position_only
2026-03-07T00:43:30.505562+00:00,1772844210505.562,0.444824,-0.537109,0.324951,0.356201,-0.223145,-1.538086,20800,18529,21078,18216,0.450000,-0.550000,0.300000,0.000000,1772844210498.257,0.444142,-0.535085,0.324853,0.000000,0.000000,0.000000,1.000000,position_only
2026-03-07T00:43:30.516299+00:00,1772844210516.299,0.444824,-0.537109,0.324951,0.370361,-0.235718,-1.528320,20800,18529,21078,18216,0.450000,-0.550000,0.300000,0.000000,1772844210515.335,0.443965,-0.535025,0.324859,0.000000,0.000000,0.000000,1.000000,position_only
2026-03-07T00:43:30.526432+00:00,1772844210526.432,0.444580,-0.537109,0.324951,0.369141,-0.243652,-1.510742,20800,18529,21078,18216,0.450000,-0.550000,0.300000,0.000000,1772844210523.840,0.443818,-0.534963,0.324878,0.000000,0.000000,0.000000,1.000000,position_only
2026-03-07T00:43:30.537034+00:00,1772844210537.034,0.444580,-0.537109,0.324951,0.362793,-0.244019,-1.499023,20800,18529,21078,18216,0.450000,-0.550000,0.300000,0.000000,1772844210532.333,0.443752,-0.534943,0.324873,0.000000,0.000000,0.000000,1.000000,position_only
2026-03-07T00:43:30.545494+00:00,1772844210545.494,0.444580,-0.536621,0.324951,0.356934,-0.246216,-1.492188,20800,18529,21078,18216,0.450000,-0.550000,0.300000,0.000000,1772844210540.822,0.443642,-0.534890,0.324892,0.000000,0.000000,0.000000,1.000000,position_only
2026-03-07T00:43:30.556205+00:00,1772844210556.204,0.444336,-0.536621,0.324951,0.364258,-0.224854,-1.465820,20800,18529,21078,18216,0.450000,-0.550000,0.300000,0.000000,1772844210549.303,0.443587,-0.534833,0.324886,0.000000,0.000000,0.000000,1.000000,position_only
2026-03-07T00:43:30.565623+00:00,1772844210565.623,0.444336,-0.536621,0.324951,0.373291,-0.207886,-1.451172,20800,18529,21078,18216,0.450000,-0.550000,0.300000,0.000000,1772844210557.813,0.443399,-0.534761,0.324883,0.000000,0.000000,0.000000,1.000000,position_only
2026-03-07T00:43:30.575822+00:00,1772844210575.822,0.444336,-0.536621,0.324951,0.365723,-0.211914,-1.446289,20800,18529,21078,18216,0.450000,-0.550000,0.300000,0.000000,1772844210574.758,0.443268,-0.534643,0.324896,0.000000,0.000000,0.000000,1.000000,position_only
2026-03-07T00:43:30.585982+00:00,1772844210585.981,0.444092,-0.536621,0.324951,0.367188,-0.212158,-1.433594,20800,18529,21078,18216,0.450000,-0.550000,0.300000,0.000000,1772844210583.275,0.443195,-0.534608,0.324890,0.000000,0.000000,0.000000,1.000000,position_only
2026-03-07T00:43:30.595272+00:00,1772844210595.271,0.444092,-0.536621,0.324951,0.376709,-0.205078,-1.409180,20800,18529,21078,18216,0.450000,-0.550000,0.300000,0.000000,1772844210591.780,0.443121,-0.534578,0.324906,0.000000,0.000000,0.000000,1.000000,position_only
2026-03-07T00:43:30.606551+00:00,1772844210606.550,0.443848,-0.536621,0.324951,0.385986,-0.205078,-1.391602,20800,18529,21078,18216,0.450000,-0.550000,0.300000,0.000000,1772844210600.307,0.443038,-0.534514,0.324915,0.000000,0.000000,0.000000,1.000000,position_only
2026-03-07T00:43:30.616568+00:00,1772844210616.568,0.443848,-0.536621,0.324951,0.397217,-0.218750,-1.382812,20800,18529,21078,18216,0.450000,-0.550000,0.300000,0.000000,1772844210608.795,0.442973,-0.534492,0.324900,0.000000,0.000000,0.000000,1.000000,position_only
2026-03-07T00:43:30.626494+00:00,1772844210626.494,0.443848,-0.536621,0.324951,0.402344,-0.225464,-1.375977,20800,18529,21078,18216,0.450000,-0.550000,0.300000,0.000000,1772844210625.862,0.442809,-0.534398,0.324892,0.000000,0.000000,0.000000,1.000000,position_only
2026-03-07T00:43:30.635699+00:00,1772844210635.698,0.443848,-0.536621,0.325195,0.407715,-0.234863,-1.358398,20800,18529,21078,18216,0.450000,-0.550000,0.300000,0.000000,1772844210634.342,0.442766,-0.534352,0.324902,0.000000,0.000000,0.000000,1.000000,position_only
2026-03-07T00:43:30.645909+00:00,1772844210645.908,0.443604,-0.536621,0.325195,0.426025,-0.244263,-1.349609,20800,18529,21078,18216,0.450000,-0.550000,0.300000,0.000000,1772844210642.821,0.442704,-0.534324,0.324892,0.000000,0.000000,0.000000,1.000000,position_only
2026-03-07T00:43:30.656645+00:00,1772844210656.645,0.443604,-0.536133,0.325195,0.439209,-0.257080,-1.330078,20800,18529,21078,18216,0.450000,-0.550000,0.300000,0.000000,1772844210651.304,0.442628,-0.534312,0.324887,0.000000,0.000000,0.000000,1.000000,position_only
2026-03-07T00:43:30.665739+00:00,1772844210665.739,0.443359,-0.536133,0.325195,0.421631,-0.278809,-1.318359,20800,18529,21078,18216,0.450000,-0.550000,0.300000,0.000000,1772844210659.776,0.442628,-0.534312,0.324887,0.000000,0.000000,0.000000,1.000000,position_only
2026-03-07T00:43:30.676418+00:00,1772844210676.417,0.443359,-0.536133,0.325195,0.387695,-0.306152,-1.306641,20800,18529,21078,18216,0.450000,-0.550000,0.300000,0.000000,1772844210668.367,0.442443,-0.534148,0.324884,0.000000,0.000000,0.000000,1.000000,position_only
2026-03-07T00:43:30.686261+00:00,1772844210686.260,0.443359,-0.536133,0.324951,0.370361,-0.311035,-1.287109,20800,18529,21078,18216,0.450000,-0.550000,0.300000,0.000000,1772844210685.367,0.442293,-0.534026,0.324845,0.000000,0.000000,0.000000,1.000000,position_only
2026-03-07T00:43:30.695359+00:00,1772844210695.359,0.443359,-0.536133,0.324951,0.358398,-0.307129,-1.265625,20800,18529,21078,18216,0.450000,-0.550000,0.300000,0.000000,1772844210694.008,0.442231,-0.533966,0.324844,0.000000,0.000000,0.000000,1.000000,position_only
2026-03-07T00:43:30.706789+00:00,1772844210706.789,0.443115,-0.536133,0.324951,0.360107,-0.283691,-1.243164,20800,18529,21078,18216,0.450000,-0.550000,0.300000,0.000000,1772844210702.806,0.442147,-0.533921,0.324809,0.000000,0.000000,0.000000,1.000000,position_only
2026-03-07T00:43:30.716751+00:00,1772844210716.751,0.443115,-0.536133,0.324951,0.356689,-0.267822,-1.222656,20800,18529,21078,18216,0.450000,-0.550000,0.300000,0.000000,1772844210711.282,0.442065,-0.533891,0.324812,0.000000,0.000000,0.000000,1.000000,position_only
2026-03-07T00:43:30.725905+00:00,1772844210725.905,0.443115,-0.536133,0.324951,0.350830,-0.257812,-1.207031,20800,18529,21078,18216,0.450000,-0.550000,0.300000,0.000000,1772844210719.772,0.441994,-0.533829,0.324776,0.000000,0.000000,0.000000,1.000000,position_only
2026-03-07T00:43:30.735733+00:00,1772844210735.733,0.442871,-0.536133,0.324951,0.363037,-0.253906,-1.189453,20800,18529,21078,18216,0.450000,-0.550000,0.300000,0.000000,1772844210728.255,0.441897,-0.533757,0.324765,0.000000,0.000000,0.000000,1.000000,position_only
2026-03-07T00:43:30.745614+00:00,1772844210745.614,0.442871,-0.536133,0.324951,0.376953,-0.243774,-1.178711,20800,18529,21078,18216,0.450000,-0.550000,0.300000,0.000000,1772844210745.182,0.441733,-0.533696,0.324720,0.000000,0.000000,0.000000,1.000000,position_only
2026-03-07T00:43:30.756609+00:00,1772844210756.609,0.442871,-0.536133,0.324951,0.388916,-0.239014,-1.169922,20800,18529,21078,18216,0.450000,-0.550000,0.300000,0.000000,1772844210753.857,0.441666,-0.533657,0.324718,0.000000,0.000000,0.000000,1.000000,position_only
2026-03-07T00:43:30.767334+00:00,1772844210767.334,0.442627,-0.536133,0.324951,0.393555,-0.244873,-1.163086,20800,18529,21078,18216,0.450000,-0.550000,0.300000,0.000000,1772844210762.406,0.441559,-0.533607,0.324723,0.000000,0.000000,0.000000,1.000000,position_only
2026-03-07T00:43:30.775912+00:00,1772844210775.911,0.442627,-0.535645,0.324951,0.381348,-0.241943,-1.144531,20800,18529,21078,18216,0.450000,-0.550000,0.300000,0.000000,1772844210770.871,0.441490,-0.533561,0.324732,0.000000,0.000000,0.000000,1.000000,position_only
2026-03-07T00:43:30.786314+00:00,1772844210786.314,0.442627,-0.535645,0.324951,0.364502,-0.253662,-1.130859,20800,18529,21078,18216,0.450000,-0.550000,0.300000,0.000000,1772844210779.345,0.441451,-0.533493,0.324711,0.000000,0.000000,0.000000,1.000000,position_only
2026-03-07T00:43:30.795540+00:00,1772844210795.540,0.442383,-0.535645,0.324951,0.358398,-0.247314,-1.112305,20800,18529,21078,18216,0.450000,-0.550000,0.300000,0.000000,1772844210787.898,0.441359,-0.533420,0.324721,0.000000,0.000000,0.000000,1.000000,position_only
2026-03-07T00:43:30.806917+00:00,1772844210806.917,0.442383,-0.535645,0.324707,0.353516,-0.270752,-1.101562,20800,18529,21078,18216,0.450000,-0.550000,0.300000,0.000000,1772844210805.193,0.441244,-0.533347,0.324692,0.000000,0.000000,0.000000,1.000000,position_only
2026-03-07T00:43:30.816866+00:00,1772844210816.865,0.442383,-0.535645,0.324707,0.361572,-0.294434,-1.083984,20800,18529,21078,18216,0.450000,-0.550000,0.300000,0.000000,1772844210813.703,0.441177,-0.533284,0.324709,0.000000,0.000000,0.000000,1.000000,position_only
2026-03-07T00:43:30.826903+00:00,1772844210826.903,0.442139,-0.535645,0.324707,0.361084,-0.303223,-1.071289,20800,18529,21078,18216,0.450000,-0.550000,0.300000,0.000000,1772844210822.207,0.441083,-0.533247,0.324702,0.000000,0.000000,0.000000,1.000000,position_only
2026-03-07T00:43:30.836494+00:00,1772844210836.494,0.442139,-0.535645,0.324707,0.344727,-0.304199,-1.047852,20800,18529,21078,18216,0.450000,-0.550000,0.300000,0.000000,1772844210830.843,0.441013,-0.533207,0.324696,0.000000,0.000000,0.000000,1.000000,position_only
2026-03-07T00:43:30.846206+00:00,1772844210846.206,0.442139,-0.535156,0.324707,0.323486,-0.318604,-1.030273,20800,18529,21078,18216,0.450000,-0.550000,0.300000,0.000000,1772844210839.334,0.440966,-0.533129,0.324683,0.000000,0.000000,0.000000,1.000000,position_only
2026-03-07T00:43:30.856740+00:00,1772844210856.740,0.442139,-0.535156,0.324707,0.318604,-0.323730,-1.013672,20800,18529,21078,18216,0.450000,-0.550000,0.300000,0.000000,1772844210856.330,0.440846,-0.533016,0.324669,0.000000,0.000000,0.000000,1.000000,position_only
2026-03-07T00:43:30.866798+00:00,1772844210866.797,0.441895,-0.535156,0.324707,0.315186,-0.313232,-0.994141,20800,18529,21078,18216,0.450000,-0.550000,0.300000,0.000000,1772844210864.847,0.440771,-0.532969,0.324652,0.000000,0.000000,0.000000,1.000000,position_only
2026-03-07T00:43:30.876721+00:00,1772844210876.721,0.441895,-0.535156,0.324707,0.311523,-0.300293,-0.972656,20800,18529,21078,18216,0.450000,-0.550000,0.300000,0.000000,1772844210873.322,0.440703,-0.532920,0.324653,0.000000,0.000000,0.000000,1.000000,position_only
2026-03-07T00:43:30.886470+00:00,1772844210886.469,0.441895,-0.535156,0.324707,0.305420,-0.289307,-0.944336,20800,18529,21078,18216,0.450000,-0.550000,0.300000,0.000000,1772844210881.891,0.440642,-0.532870,0.324653,0.000000,0.000000,0.000000,1.000000,position_only
2026-03-07T00:43:30.895639+00:00,1772844210895.639,0.441650,-0.535156,0.324707,0.299561,-0.293701,-0.931152,20800,18529,21078,18216,0.450000,-0.550000,0.300000,0.000000,1772844210890.424,0.440583,-0.532832,0.324650,0.000000,0.000000,0.000000,1.000000,position_only
2026-03-07T00:43:30.906958+00:00,1772844210906.958,0.441650,-0.535156,0.324707,0.299316,-0.288086,-0.910156,20800,18529,21078,18216,0.450000,-0.550000,0.300000,0.000000,1772844210898.926,0.440512,-0.532739,0.324652,0.000000,0.000000,0.000000,1.000000,position_only
2026-03-07T00:43:30.917105+00:00,1772844210917.104,0.441650,-0.535156,0.324707,0.293457,-0.279541,-0.892090,20800,18529,21078,18216,0.450000,-0.550000,0.300000,0.000000,1772844210915.985,0.440328,-0.532553,0.324648,0.000000,0.000000,0.000000,1.000000,position_only
2026-03-07T00:43:30.926353+00:00,1772844210926.353,0.441650,-0.535156,0.324707,0.302734,-0.275391,-0.875488,20800,18529,21078,18216,0.450000,-0.550000,0.300000,0.000000,1772844210924.733,0.440265,-0.532490,0.324634,0.000000,0.000000,0.000000,1.000000,position_only
2026-03-07T00:43:30.936921+00:00,1772844210936.919,0.441650,-0.534668,0.324707,0.306152,-0.301758,-0.864258,20800,18529,21078,18216,0.450000,-0.550000,0.300000,0.000000,1772844210933.253,0.440215,-0.532434,0.324643,0.000000,0.000000,0.000000,1.000000,position_only
2026-03-07T00:43:30.946723+00:00,1772844210946.722,0.441406,-0.534668,0.324707,0.296143,-0.320068,-0.849121,20800,18529,21078,18216,0.450000,-0.550000,0.300000,0.000000,1772844210941.706,0.440155,-0.532354,0.324631,0.000000,0.000000,0.000000,1.000000,position_only
2026-03-07T00:43:30.956979+00:00,1772844210956.978,0.441406,-0.534668,0.324707,0.291748,-0.340088,-0.832520,20800,18529,21078,18216,0.450000,-0.550000,0.300000,0.000000,1772844210950.243,0.440102,-0.532243,0.324664,0.000000,0.000000,0.000000,1.000000,position_only
2026-03-07T00:43:30.966923+00:00,1772844210966.923,0.441406,-0.534668,0.324707,0.302246,-0.340332,-0.815918,20800,18529,21078,18216,0.450000,-0.550000,0.300000,0.000000,1772844210958.853,0.440012,-0.532154,0.324678,0.000000,0.000000,0.000000,1.000000,position_only
2026-03-07T00:43:30.977280+00:00,1772844210977.279,0.441162,-0.534668,0.324707,0.304443,-0.353760,-0.808594,20800,18529,21078,18216,0.450000,-0.550000,0.300000,0.000000,1772844210975.978,0.439885,-0.532007,0.324686,0.000000,0.000000,0.000000,1.000000,position_only
2026-03-07T00:43:30.987134+00:00,1772844210987.134,0.441162,-0.534668,0.324707,0.302002,-0.356445,-0.797852,20800,18529,21078,18216,0.450000,-0.550000,0.300000,0.000000,1772844210984.462,0.439811,-0.531933,0.324699,0.000000,0.000000,0.000000,1.000000,position_only
2026-03-07T00:43:30.997747+00:00,1772844210997.746,0.441162,-0.534180,0.324707,0.296387,-0.353760,-0.783203,20800,18529,21078,18216,0.450000,-0.550000,0.300000,0.000000,1772844210993.062,0.439767,-0.531863,0.324708,0.000000,0.000000,0.000000,1.000000,position_only
2026-03-07T00:43:31.006931+00:00,1772844211006.930,0.440918,-0.534180,0.324707,0.287354,-0.351562,-0.775879,20800,18529,21078,18216,0.450000,-0.550000,0.300000,0.000000,1772844211001.531,0.439728,-0.531796,0.324693,0.000000,0.000000,0.000000,1.000000,position_only
2026-03-07T00:43:31.017066+00:00,1772844211017.064,0.440918,-0.534180,0.324707,0.291016,-0.336914,-0.759277,20800,18529,21078,18216,0.450000,-0.550000,0.300000,0.000000,1772844211010.020,0.439698,-0.531710,0.324697,0.000000,0.000000,0.000000,1.000000,position_only
2026-03-07T00:43:31.026477+00:00,1772844211026.477,0.440918,-0.534180,0.324707,0.302246,-0.323486,-0.743652,20800,18529,21078,18216,0.450000,-0.550000,0.300000,0.000000,1772844211018.534,0.439647,-0.531644,0.324716,0.000000,0.000000,0.000000,1.000000,position_only
2026-03-07T00:43:31.037081+00:00,1772844211037.080,0.440918,-0.534180,0.324707,0.317383,-0.324707,-0.730957,20800,18529,21078,18216,0.450000,-0.550000,0.300000,0.000000,1772844211035.532,0.439544,-0.531479,0.324748,0.000000,0.000000,0.000000,1.000000,position_only
2026-03-07T00:43:31.047032+00:00,1772844211047.032,0.440918,-0.533691,0.324707,0.327148,-0.317139,-0.717285,20800,18529,21078,18216,0.450000,-0.550000,0.300000,0.000000,1772844211044.188,0.439487,-0.531410,0.324747,0.000000,0.000000,0.000000,1.000000,position_only
2026-03-07T00:43:31.057330+00:00,1772844211057.329,0.440918,-0.533691,0.324951,0.334961,-0.313721,-0.706055,20800,18529,21078,18216,0.450000,-0.550000,0.300000,0.000000,1772844211052.778,0.439418,-0.531232,0.324818,0.000000,0.000000,0.000000,1.000000,position_only
2026-03-07T00:43:31.067061+00:00,1772844211067.060,0.440674,-0.533691,0.324951,0.358643,-0.320312,-0.693848,20800,18529,21078,18216,0.450000,-0.550000,0.300000,0.000000,1772844211061.319,0.439395,-0.531208,0.324801,0.000000,0.000000,0.000000,1.000000,position_only
2026-03-07T00:43:31.077103+00:00,1772844211077.103,0.440674,-0.533691,0.324951,0.385986,-0.336182,-0.682129,20800,18529,21078,18216,0.450000,-0.550000,0.300000,0.000000,1772844211069.767,0.439357,-0.531059,0.324845,0.000000,0.000000,0.000000,1.000000,position_only
2026-03-07T00:43:31.086331+00:00,1772844211086.330,0.440674,-0.533203,0.324951,0.413574,-0.350586,-0.667480,20800,18529,21078,18216,0.450000,-0.550000,0.300000,0.000000,1772844211078.281,0.439342,-0.531034,0.324855,0.000000,0.000000,0.000000,1.000000,position_only
2026-03-07T00:43:31.096609+00:00,1772844211096.608,0.440674,-0.533203,0.324951,0.429443,-0.368896,-0.657227,20800,18529,21078,18216,0.450000,-0.550000,0.300000,0.000000,1772844211095.518,0.439302,-0.530832,0.324903,0.000000,0.000000,0.000000,1.000000,position_only
2026-03-07T00:43:31.106641+00:00,1772844211106.641,0.440674,-0.533203,0.324951,0.438721,-0.378174,-0.638672,20800,18529,21078,18216,0.450000,-0.550000,0.300000,0.000000,1772844211104.122,0.439272,-0.530825,0.324893,0.000000,0.000000,0.000000,1.000000,position_only
2026-03-07T00:43:31.117393+00:00,1772844211117.393,0.440430,-0.533203,0.324951,0.444580,-0.377930,-0.621582,20800,18529,21078,18216,0.450000,-0.550000,0.300000,0.000000,1772844211112.588,0.439231,-0.530739,0.324941,0.000000,0.000000,0.000000,1.000000,position_only
2026-03-07T00:43:31.127137+00:00,1772844211127.136,0.440430,-0.532715,0.324951,0.458252,-0.377686,-0.605469,20800,18529,21078,18216,0.450000,-0.550000,0.300000,0.000000,1772844211121.081,0.439186,-0.530618,0.324982,0.000000,0.000000,0.000000,1.000000,position_only
2026-03-07T00:43:31.136914+00:00,1772844211136.913,0.440430,-0.532715,0.324951,0.458740,-0.365234,-0.583008,20800,18529,21078,18216,0.450000,-0.550000,0.300000,0.000000,1772844211129.770,0.439165,-0.530544,0.324980,0.000000,0.000000,0.000000,1.000000,position_only
2026-03-07T00:43:31.146499+00:00,1772844211146.499,0.440430,-0.532715,0.324951,0.479004,-0.352295,-0.566406,20800,18529,21078,18216,0.450000,-0.550000,0.300000,0.000000,1772844211138.356,0.439115,-0.530419,0.325023,0.000000,0.000000,0.000000,1.000000,position_only
2026-03-07T00:43:31.157011+00:00,1772844211157.010,0.440430,-0.532715,0.325195,0.504395,-0.353027,-0.553223,20800,18529,21078,18216,0.450000,-0.550000,0.300000,0.000000,1772844211155.349,0.439085,-0.530229,0.325040,0.000000,0.000000,0.000000,1.000000,position_only
2026-03-07T00:43:31.167165+00:00,1772844211167.164,0.440430,-0.532715,0.325195,0.530273,-0.364990,-0.536133,20800,18529,21078,18216,0.450000,-0.550000,0.300000,0.000000,1772844211163.818,0.439078,-0.530152,0.325054,0.000000,0.000000,0.000000,1.000000,position_only
2026-03-07T00:43:31.176319+00:00,1772844211176.318,0.440430,-0.532227,0.325195,0.555664,-0.360840,-0.520508,20800,18529,21078,18216,0.450000,-0.550000,0.300000,0.000000,1772844211172.371,0.439063,-0.530065,0.325076,0.000000,0.000000,0.000000,1.000000,position_only
2026-03-07T00:43:31.186957+00:00,1772844211186.957,0.440430,-0.532227,0.325195,0.567871,-0.373779,-0.507324,20800,18529,21078,18216,0.450000,-0.550000,0.300000,0.000000,1772844211180.917,0.439047,-0.529967,0.325110,0.000000,0.000000,0.000000,1.000000,position_only
2026-03-07T00:43:31.196740+00:00,1772844211196.740,0.440430,-0.532227,0.325195,0.576172,-0.377686,-0.492920,20800,18529,21078,18216,0.450000,-0.550000,0.300000,0.000000,1772844211189.400,0.439036,-0.529882,0.325128,0.000000,0.000000,0.000000,1.000000,position_only
2026-03-07T00:43:31.207194+00:00,1772844211207.194,0.440430,-0.532227,0.325195,0.584473,-0.381104,-0.475830,20800,18529,21078,18216,0.450000,-0.550000,0.300000,0.000000,1772844211206.372,0.439013,-0.529718,0.325146,0.000000,0.000000,0.000000,1.000000,position_only
2026-03-07T00:43:31.217186+00:00,1772844211217.185,0.440430,-0.532227,0.325195,0.589355,-0.375488,-0.460449,20800,18529,21078,18216,0.450000,-0.550000,0.300000,0.000000,1772844211214.849,0.439002,-0.529644,0.325172,0.000000,0.000000,0.000000,1.000000,position_only
2026-03-07T00:43:31.228199+00:00,1772844211228.198,0.440430,-0.532227,0.325195,0.595703,-0.376953,-0.444580,20800,18529,21078,18216,0.450000,-0.550000,0.300000,0.000000,1772844211223.518,0.438999,-0.529579,0.325182,0.000000,0.000000,0.000000,1.000000,position_only
2026-03-07T00:43:31.236734+00:00,1772844211236.733,0.440186,-0.531738,0.325195,0.598145,-0.368896,-0.413086,20800,18529,21078,18216,0.450000,-0.550000,0.300000,0.000000,1772844211232.152,0.439004,-0.529500,0.325208,0.000000,0.000000,0.000000,1.000000,position_only
2026-03-07T00:43:31.248905+00:00,1772844211248.904,0.440186,-0.531738,0.325195,0.598145,-0.368896,-0.413086,19632,19184,19576,19148,0.450000,-0.550000,0.300000,0.000000,1772844211240.589,0.438970,-0.529436,0.325240,0.000000,0.000000,0.000000,1.000000,position_only
2026-03-07T00:43:31.258759+00:00,1772844211258.759,0.440186,-0.531738,0.325195,0.603516,-0.345215,-0.360596,19718,19090,19642,19078,0.450000,-0.550000,0.300000,0.000000,1772844211258.121,0.438943,-0.529218,0.325311,0.000000,0.000000,0.000000,1.000000,position_only
2026-03-07T00:43:31.268141+00:00,1772844211268.141,0.440186,-0.531738,0.325195,0.603516,-0.345215,-0.360596,19942,18839,19958,18788,0.450000,-0.550000,0.300000,0.000000,1772844211266.612,0.438927,-0.529153,0.325327,0.000000,0.000000,0.000000,1.000000,position_only
2026-03-07T00:43:31.277744+00:00,1772844211277.744,0.440186,-0.531738,0.325195,0.608887,-0.332520,-0.321777,20074,18666,20193,18622,0.450000,-0.550000,0.300000,0.000000,1772844211275.100,0.438929,-0.529051,0.325358,0.000000,0.000000,0.000000,1.000000,position_only
2026-03-07T00:43:31.289757+00:00,1772844211289.756,0.440186,-0.531738,0.325195,0.597656,-0.300293,-0.261230,19961,18766,20254,18603,0.450000,-0.550000,0.300000,0.000000,1772844211283.599,0.438877,-0.528968,0.325357,0.000000,0.000000,0.000000,1.000000,position_only
2026-03-07T00:43:31.300510+00:00,1772844211300.510,0.440186,-0.531250,0.325195,0.573730,-0.238159,-0.188721,19824,18864,20209,18722,0.450000,-0.550000,0.300000,0.000000,1772844211292.093,0.438839,-0.528891,0.325358,0.000000,0.000000,0.000000,1.000000,position_only
2026-03-07T00:43:31.307910+00:00,1772844211307.909,0.440186,-0.531250,0.325195,0.534668,-0.147339,-0.116577,19772,18944,20226,18742,0.450000,-0.550000,0.300000,0.000000,1772844211300.671,0.438763,-0.528793,0.325364,0.000000,0.000000,0.000000,1.000000,position_only
2026-03-07T00:43:31.317119+00:00,1772844211317.118,0.440186,-0.531250,0.325195,0.489502,-0.043060,-0.049408,19804,18945,20292,18726,0.450000,-0.550000,0.300000,0.000000,1772844211309.165,0.438764,-0.528738,0.325311,0.000000,0.000000,0.000000,1.000000,position_only
2026-03-07T00:43:31.328599+00:00,1772844211328.598,0.440186,-0.531250,0.325195,0.451172,0.053833,0.009026,19787,18989,20356,18697,0.450000,-0.550000,0.300000,0.000000,1772844211326.167,0.438657,-0.528613,0.325220,0.000000,0.000000,0.000000,1.000000,position_only
2026-03-07T00:43:31.339130+00:00,1772844211339.129,0.440186,-0.531250,0.325195,0.413086,0.171387,0.072083,19792,19069,20331,18689,0.450000,-0.550000,0.300000,0.000000,1772844211334.645,0.438628,-0.528530,0.325139,0.000000,0.000000,0.000000,1.000000,position_only
2026-03-07T00:43:31.348212+00:00,1772844211348.211,0.440186,-0.531250,0.324951,0.384521,0.297852,0.135742,19886,19014,20394,18655,0.450000,-0.550000,0.300000,0.000000,1772844211343.165,0.438575,-0.528465,0.325047,0.000000,0.000000,0.000000,1.000000,position_only
2026-03-07T00:43:31.357907+00:00,1772844211357.906,0.439941,-0.530762,0.324707,0.369141,0.397705,0.194580,20112,18830,20646,18432,0.450000,-0.550000,0.300000,0.000000,1772844211351.642,0.438523,-0.528393,0.324955,0.000000,0.000000,0.000000,1.000000,position_only
2026-03-07T00:43:31.368460+00:00,1772844211368.459,0.439941,-0.530762,0.324707,0.363525,0.510742,0.278564,20071,18952,20536,18542,0.450000,-0.550000,0.300000,0.000000,1772844211360.189,0.438458,-0.528334,0.324814,0.000000,0.000000,0.000000,1.000000,position_only
2026-03-07T00:43:31.378215+00:00,1772844211378.215,0.439941,-0.530762,0.324463,0.363525,0.593750,0.347412,20100,18971,20496,18593,0.450000,-0.550000,0.300000,0.000000,1772844211377.191,0.438302,-0.528185,0.324522,0.000000,0.000000,0.000000,1.000000,position_only
2026-03-07T00:43:31.387269+00:00,1772844211387.268,0.439941,-0.530762,0.324219,0.369141,0.658203,0.406982,20222,18905,20580,18495,0.450000,-0.550000,0.300000,0.000000,1772844211385.787,0.438224,-0.528106,0.324346,0.000000,0.000000,0.000000,1.000000,position_only
2026-03-07T00:43:31.397160+00:00,1772844211397.159,0.439697,-0.530762,0.323975,0.389404,0.707031,0.480713,20165,19005,20451,18651,0.450000,-0.550000,0.300000,0.000000,1772844211394.382,0.438117,-0.528035,0.324147,0.000000,0.000000,0.000000,1.000000,position_only
2026-03-07T00:43:31.409938+00:00,1772844211409.937,0.439697,-0.530762,0.323730,0.409912,0.738770,0.548340,20294,18908,20599,18575,0.450000,-0.550000,0.300000,0.000000,1772844211402.819,0.438024,-0.527977,0.323974,0.000000,0.000000,0.000000,1.000000,position_only
2026-03-07T00:43:31.418565+00:00,1772844211418.564,0.439453,-0.530273,0.323486,0.425049,0.760742,0.614258,20221,19063,20439,18741,0.450000,-0.550000,0.300000,0.000000,1772844211411.303,0.437911,-0.527927,0.323788,0.000000,0.000000,0.000000,1.000000,position_only
2026-03-07T00:43:31.427742+00:00,1772844211427.742,0.439453,-0.530273,0.323242,0.445801,0.761719,0.671387,20326,18943,20595,18639,0.450000,-0.550000,0.300000,0.000000,1772844211419.753,0.437799,-0.527861,0.323596,0.000000,0.000000,0.000000,1.000000,position_only
2026-03-07T00:43:31.437826+00:00,1772844211437.825,0.439209,-0.530273,0.322998,0.460938,0.768555,0.742676,20286,18974,20646,18631,0.450000,-0.550000,0.300000,0.000000,1772844211436.762,0.437525,-0.527724,0.323180,0.000000,0.000000,0.000000,1.000000,position_only
2026-03-07T00:43:31.448981+00:00,1772844211448.980,0.438965,-0.530273,0.322754,0.463623,0.782227,0.808105,20450,18814,20773,18524,0.450000,-0.550000,0.300000,0.000000,1772844211445.316,0.437355,-0.527636,0.322956,0.000000,0.000000,0.000000,1.000000,position_only
2026-03-07T00:43:31.458755+00:00,1772844211458.754,0.438721,-0.530273,0.322266,0.460938,0.778320,0.890137,20392,18856,20710,18618,0.450000,-0.550000,0.300000,0.000000,1772844211453.758,0.437209,-0.527541,0.322701,0.000000,0.000000,0.000000,1.000000,position_only
2026-03-07T00:43:31.467743+00:00,1772844211467.742,0.438477,-0.530273,0.322021,0.453125,0.768066,0.955078,20245,18994,20559,18806,0.450000,-0.550000,0.300000,0.000000,1772844211462.260,0.437000,-0.527485,0.322438,0.000000,0.000000,0.000000,1.000000,position_only
2026-03-07T00:43:31.477811+00:00,1772844211477.810,0.438477,-0.529785,0.322021,0.453125,0.768066,0.955078,20221,19052,20488,18838,0.450000,-0.550000,0.300000,0.000000,1772844211470.703,0.436778,-0.527419,0.322145,0.000000,0.000000,0.000000,1.000000,position_only
2026-03-07T00:43:31.489044+00:00,1772844211489.043,0.437988,-0.529785,0.321289,0.445801,0.727051,1.062500,20458,18901,20752,18611,0.450000,-0.550000,0.300000,0.000000,1772844211487.645,0.436384,-0.527259,0.321549,0.000000,0.000000,0.000000,1.000000,position_only
2026-03-07T00:43:31.499038+00:00,1772844211499.038,0.437988,-0.529785,0.321289,0.445801,0.727051,1.062500,20422,18903,20650,18746,0.450000,-0.550000,0.300000,0.000000,1772844211496.243,0.436154,-0.527218,0.321291,0.000000,0.000000,0.000000,1.000000,position_only
2026-03-07T00:43:31.508356+00:00,1772844211508.356,0.437500,-0.529785,0.321045,0.449219,0.698242,1.136719,20374,18949,20560,18855,0.450000,-0.550000,0.300000,0.000000,1772844211504.706,0.435969,-0.527154,0.321025,0.000000,0.000000,0.000000,1.000000,position_only
2026-03-07T00:43:31.519371+00:00,1772844211519.370,0.437256,-0.529785,0.320801,0.447510,0.644043,1.190430,20398,18950,20632,18762,0.450000,-0.550000,0.300000,0.000000,1772844211513.226,0.435724,-0.527123,0.320714,0.000000,0.000000,0.000000,1.000000,position_only
2026-03-07T00:43:31.529295+00:00,1772844211529.294,0.437012,-0.529297,0.320312,0.442139,0.583496,1.237305,20603,18736,20839,18599,0.450000,-0.550000,0.300000,0.000000,1772844211521.716,0.435430,-0.527023,0.320427,0.000000,0.000000,0.000000,1.000000,position_only
2026-03-07T00:43:31.539225+00:00,1772844211539.224,0.436523,-0.529297,0.320068,0.432617,0.523438,1.305664,20495,18835,20783,18713,0.450000,-0.550000,0.300000,0.000000,1772844211538.702,0.434883,-0.526858,0.319798,0.000000,0.000000,0.000000,1.000000,position_only
2026-03-07T00:43:31.547893+00:00,1772844211547.893,0.436279,-0.529297,0.319580,0.424805,0.471436,1.369141,20415,18932,20684,18807,0.450000,-0.550000,0.300000,0.000000,1772844211547.587,0.434597,-0.526816,0.319476,0.000000,0.000000,0.000000,1.000000,position_only
2026-03-07T00:43:31.557270+00:00,1772844211557.270,0.436035,-0.529297,0.319336,0.407715,0.427734,1.432617,20332,18996,20675,18845,0.450000,-0.550000,0.300000,0.000000,1772844211556.074,0.434369,-0.526746,0.319126,0.000000,0.000000,0.000000,1.000000,position_only
2026-03-07T00:43:31.571071+00:00,1772844211571.070,0.435547,-0.529297,0.318848,0.394287,0.392822,1.481445,20376,18957,20724,18806,0.450000,-0.550000,0.300000,0.000000,1772844211564.588,0.434073,-0.526666,0.318820,0.000000,0.000000,0.000000,1.000000,position_only
2026-03-07T00:43:31.580200+00:00,1772844211580.199,0.435303,-0.529297,0.318604,0.374756,0.361816,1.530273,20336,19003,20793,18750,0.450000,-0.550000,0.300000,0.000000,1772844211573.384,0.433772,-0.526579,0.318517,0.000000,0.000000,0.000000,1.000000,position_only
2026-03-07T00:43:31.589314+00:00,1772844211589.313,0.434814,-0.528809,0.318115,0.363525,0.360840,1.586914,20199,19170,20587,18960,0.450000,-0.550000,0.300000,0.000000,1772844211582.123,0.433451,-0.526517,0.318185,0.000000,0.000000,0.000000,1.000000,position_only
2026-03-07T00:43:31.598309+00:00,1772844211598.308,0.434326,-0.528809,0.317627,0.352783,0.349121,1.629883,20233,19185,20589,18959,0.450000,-0.550000,0.300000,0.000000,1772844211590.762,0.433111,-0.526449,0.317841,0.000000,0.000000,0.000000,1.000000,position_only
2026-03-07T00:43:31.608857+00:00,1772844211608.856,0.433838,-0.528809,0.317383,0.351807,0.331787,1.664062,20262,19187,20656,18898,0.450000,-0.550000,0.300000,0.000000,1772844211607.911,0.432155,-0.526205,0.316833,0.000000,0.000000,0.000000,1.000000,position_only
2026-03-07T00:43:31.618093+00:00,1772844211618.092,0.433594,-0.528809,0.316895,0.356934,0.322754,1.704102,20332,19128,20722,18840,0.450000,-0.550000,0.300000,0.000000,1772844211616.397,0.431746,-0.526100,0.316507,0.000000,0.000000,0.000000,1.000000,position_only
2026-03-07T00:43:31.628058+00:00,1772844211628.058,0.433105,-0.528809,0.316406,0.367676,0.311768,1.753906,20540,18978,20858,18675,0.450000,-0.550000,0.300000,0.000000,1772844211624.877,0.431391,-0.526102,0.316143,0.000000,0.000000,0.000000,1.000000,position_only
2026-03-07T00:43:31.639388+00:00,1772844211639.388,0.432617,-0.528320,0.315918,0.389404,0.293701,1.806641,20510,19114,20750,18715,0.450000,-0.550000,0.300000,0.000000,1772844211633.380,0.431062,-0.526048,0.315838,0.000000,0.000000,0.000000,1.000000,position_only
2026-03-07T00:43:31.649721+00:00,1772844211649.720,0.432129,-0.528320,0.315430,0.435059,0.276611,1.857422,20480,19211,20627,18814,0.450000,-0.550000,0.300000,0.000000,1772844211642.076,0.430732,-0.525980,0.315501,0.000000,0.000000,0.000000,1.000000,position_only
2026-03-07T00:43:31.658113+00:00,1772844211658.112,0.431641,-0.528320,0.315186,0.485596,0.245117,1.894531,20539,19192,20655,18760,0.450000,-0.550000,0.300000,0.000000,1772844211650.686,0.430349,-0.525922,0.315149,0.000000,0.000000,0.000000,1.000000,position_only
2026-03-07T00:43:31.667957+00:00,1772844211667.957,0.431152,-0.528320,0.314697,0.553711,0.202637,1.940430,20696,19111,20672,18689,0.450000,-0.550000,0.300000,0.000000,1772844211667.742,0.429522,-0.525758,0.314477,0.000000,0.000000,0.000000,1.000000,position_only
2026-03-07T00:43:31.677674+00:00,1772844211677.673,0.430664,-0.528320,0.314209,0.632812,0.148438,1.983398,20641,19169,20627,18759,0.450000,-0.550000,0.300000,0.000000,1772844211676.235,0.429522,-0.525758,0.314477,0.000000,0.000000,0.000000,1.000000,position_only
2026-03-07T00:43:31.691368+00:00,1772844211691.367,0.430176,-0.527832,0.313721,0.709473,0.093567,2.025391,20608,19253,20592,18781,0.450000,-0.550000,0.300000,0.000000,1772844211685.031,0.428821,-0.525746,0.313744,0.000000,0.000000,0.000000,1.000000,position_only
2026-03-07T00:43:31.700162+00:00,1772844211700.161,0.429688,-0.527832,0.313232,0.781250,0.051300,2.062500,20674,19201,20612,18784,0.450000,-0.550000,0.300000,0.000000,1772844211693.531,0.428448,-0.525697,0.313451,0.000000,0.000000,0.000000,1.000000,position_only
2026-03-07T00:43:31.710016+00:00,1772844211710.015,0.429688,-0.527832,0.313232,0.781250,0.051300,2.062500,20684,19164,20664,18759,0.450000,-0.550000,0.300000,0.000000,1772844211702.040,0.428065,-0.525642,0.313150,0.000000,0.000000,0.000000,1.000000,position_only
2026-03-07T00:43:31.719344+00:00,1772844211719.344,0.428711,-0.527832,0.312500,0.899902,-0.066162,2.136719,20570,19234,20599,18856,0.450000,-0.550000,0.300000,0.000000,1772844211719.213,0.427186,-0.525573,0.312460,0.000000,0.000000,0.000000,1.000000,position_only
2026-03-07T00:43:31.729190+00:00,1772844211729.189,0.428223,-0.527832,0.312012,0.936523,-0.114197,2.167969,20484,19276,20515,18906,0.450000,-0.550000,0.300000,0.000000,1772844211727.747,0.426813,-0.525537,0.312141,0.000000,0.000000,0.000000,1.000000,position_only
2026-03-07T00:43:31.739017+00:00,1772844211739.017,0.427979,-0.527344,0.312012,0.936523,-0.114197,2.167969,20451,19292,20503,18935,0.450000,-0.550000,0.300000,0.000000,1772844211736.241,0.426435,-0.525451,0.311822,0.000000,0.000000,0.000000,1.000000,position_only
2026-03-07T00:43:31.750346+00:00,1772844211750.345,0.427490,-0.527344,0.311768,0.971191,-0.176025,2.197266,20548,19154,20699,18790,0.450000,-0.550000,0.300000,0.000000,1772844211744.763,0.426023,-0.525453,0.311492,0.000000,0.000000,0.000000,1.000000,position_only
2026-03-07T00:43:31.761820+00:00,1772844211761.819,0.427002,-0.527832,0.310791,0.994141,-0.236816,2.269531,20384,19285,20547,18986,0.450000,-0.550000,0.300000,0.000000,1772844211753.318,0.425544,-0.525430,0.311210,0.000000,0.000000,0.000000,1.000000,position_only
2026-03-07T00:43:31.769556+00:00,1772844211769.555,0.426270,-0.527344,0.310791,0.994141,-0.236816,2.269531,20338,19324,20614,18925,0.450000,-0.550000,0.300000,0.000000,1772844211762.010,0.425155,-0.525451,0.310911,0.000000,0.000000,0.000000,1.000000,position_only
2026-03-07T00:43:31.778674+00:00,1772844211778.673,0.426025,-0.527344,0.310547,0.981445,-0.254639,2.294922,20438,19211,20724,18828,0.450000,-0.550000,0.300000,0.000000,1772844211770.693,0.424748,-0.525438,0.310593,0.000000,0.000000,0.000000,1.000000,position_only
2026-03-07T00:43:31.788428+00:00,1772844211788.428,0.425293,-0.527344,0.310059,0.969238,-0.255859,2.332031,20332,19275,20691,18923,0.450000,-0.550000,0.300000,0.000000,1772844211787.703,0.423974,-0.525385,0.309979,0.000000,0.000000,0.000000,1.000000,position_only
2026-03-07T00:43:31.797940+00:00,1772844211797.939,0.425049,-0.527344,0.309814,0.938965,-0.259033,2.359375,20192,19381,20562,19114,0.450000,-0.550000,0.300000,0.000000,1772844211796.467,0.423425,-0.525395,0.309716,0.000000,0.000000,0.000000,1.000000,position_only
2026-03-07T00:43:31.808760+00:00,1772844211808.759,0.424561,-0.527344,0.309326,0.894531,-0.264893,2.380859,20458,19131,20853,18822,0.450000,-0.550000,0.300000,0.000000,1772844211805.017,0.422993,-0.525336,0.309396,0.000000,0.000000,0.000000,1.000000,position_only
2026-03-07T00:43:31.819335+00:00,1772844211819.335,0.423828,-0.527344,0.309082,0.847656,-0.259033,2.419922,20302,19273,20733,18972,0.450000,-0.550000,0.300000,0.000000,1772844211813.521,0.422601,-0.525354,0.309089,0.000000,0.000000,0.000000,1.000000,position_only
2026-03-07T00:43:31.827771+00:00,1772844211827.771,0.423340,-0.527344,0.308594,0.803223,-0.256348,2.453125,20193,19368,20599,19093,0.450000,-0.550000,0.300000,0.000000,1772844211822.013,0.422244,-0.525384,0.308861,0.000000,0.000000,0.000000,1.000000,position_only
2026-03-07T00:43:31.838403+00:00,1772844211838.402,0.422852,-0.527344,0.308350,0.761230,-0.257812,2.476562,20316,19290,20681,18931,0.450000,-0.550000,0.300000,0.000000,1772844211830.789,0.421836,-0.525363,0.308601,0.000000,0.000000,0.000000,1.000000,position_only
2026-03-07T00:43:31.849597+00:00,1772844211849.596,0.422363,-0.527832,0.308105,0.740234,-0.257568,2.503906,20451,19243,20696,18817,0.450000,-0.550000,0.300000,0.000000,1772844211847.820,0.420913,-0.525421,0.308055,0.000000,0.000000,0.000000,1.000000,position_only
2026-03-07T00:43:31.857987+00:00,1772844211857.986,0.421875,-0.527832,0.307617,0.740234,-0.264893,2.537109,20456,19256,20697,18804,0.450000,-0.550000,0.300000,0.000000,1772844211856.310,0.420516,-0.525442,0.307808,0.000000,0.000000,0.000000,1.000000,position_only
2026-03-07T00:43:31.869794+00:00,1772844211869.793,0.421387,-0.527832,0.307373,0.747559,-0.276367,2.566406,20314,19424,20489,18959,0.450000,-0.550000,0.300000,0.000000,1772844211864.852,0.420128,-0.525514,0.307548,0.000000,0.000000,0.000000,1.000000,position_only
2026-03-07T00:43:31.879470+00:00,1772844211879.470,0.420898,-0.527832,0.307129,0.764160,-0.294434,2.583984,20367,19360,20505,18932,0.450000,-0.550000,0.300000,0.000000,1772844211873.369,0.419717,-0.525595,0.307275,0.000000,0.000000,0.000000,1.000000,position_only
2026-03-07T00:43:31.889556+00:00,1772844211889.555,0.420410,-0.527832,0.306885,0.786621,-0.322021,2.603516,20599,19191,20659,18704,0.450000,-0.550000,0.300000,0.000000,1772844211881.821,0.419321,-0.525589,0.307001,0.000000,0.000000,0.000000,1.000000,position_only
2026-03-07T00:43:31.898219+00:00,1772844211898.219,0.419922,-0.527832,0.306396,0.818848,-0.348389,2.636719,20536,19256,20651,18715,0.450000,-0.550000,0.300000,0.000000,1772844211890.343,0.418857,-0.525655,0.306773,0.000000,0.000000,0.000000,1.000000,position_only
2026-03-07T00:43:31.908270+00:00,1772844211908.269,0.419434,-0.527832,0.306152,0.850098,-0.367432,2.667969,20406,19344,20557,18835,0.450000,-0.550000,0.300000,0.000000,1772844211907.202,0.418075,-0.525783,0.306315,0.000000,0.000000,0.000000,1.000000,position_only
2026-03-07T00:43:31.920288+00:00,1772844211920.287,0.418945,-0.528320,0.305908,0.862793,-0.392822,2.687500,20478,19239,20665,18742,0.450000,-0.550000,0.300000,0.000000,1772844211915.708,0.417681,-0.525831,0.306087,0.000000,0.000000,0.000000,1.000000,position_only
2026-03-07T00:43:31.930940+00:00,1772844211930.940,0.418457,-0.528320,0.305664,0.864746,-0.407471,2.720703,20405,19231,20679,18802,0.450000,-0.550000,0.300000,0.000000,1772844211924.202,0.417295,-0.525873,0.305853,0.000000,0.000000,0.000000,1.000000,position_only
2026-03-07T00:43:31.939229+00:00,1772844211939.229,0.418213,-0.528320,0.305664,0.864746,-0.407471,2.720703,20298,19300,20614,18901,0.450000,-0.550000,0.300000,0.000000,1772844211932.770,0.416469,-0.526094,0.305417,0.000000,0.000000,0.000000,1.000000,position_only
2026-03-07T00:43:31.949749+00:00,1772844211949.749,0.417725,-0.528320,0.305420,0.843750,-0.419678,2.746094,20160,19454,20482,19002,0.450000,-0.550000,0.300000,0.000000,1772844211941.279,0.416056,-0.526159,0.305231,0.000000,0.000000,0.000000,1.000000,position_only
2026-03-07T00:43:31.959590+00:00,1772844211959.589,0.416748,-0.528320,0.304932,0.783691,-0.438721,2.781250,20248,19309,20609,18928,0.450000,-0.550000,0.300000,0.000000,1772844211958.445,0.415364,-0.526245,0.304918,0.000000,0.000000,0.000000,1.000000,position_only
2026-03-07T00:43:31.969783+00:00,1772844211969.782,0.416748,-0.528320,0.304932,0.783691,-0.438721,2.781250,20211,19325,20570,18989,0.450000,-0.550000,0.300000,0.000000,1772844211967.177,0.414875,-0.526354,0.304700,0.000000,0.000000,0.000000,1.000000,position_only
2026-03-07T00:43:31.978944+00:00,1772844211978.944,0.416260,-0.528320,0.304688,0.741211,-0.436768,2.806641,20289,19280,20639,18879,0.450000,-0.550000,0.300000,0.000000,1772844211975.706,0.414505,-0.526418,0.304481,0.000000,0.000000,0.000000,1.000000,position_only
2026-03-07T00:43:31.988944+00:00,1772844211988.943,0.415771,-0.528809,0.304443,0.698242,-0.444824,2.824219,20214,19317,20563,18980,0.450000,-0.550000,0.300000,0.000000,1772844211984.287,0.414505,-0.526418,0.304481,0.000000,0.000000,0.000000,1.000000,position_only
2026-03-07T00:43:32.000537+00:00,1772844212000.537,0.415283,-0.528809,0.304199,0.658691,-0.459229,2.843750,20402,19147,20739,18777,0.450000,-0.550000,0.300000,0.000000,1772844211992.926,0.413794,-0.526588,0.304124,0.000000,0.000000,0.000000,1.000000,position_only
2026-03-07T00:43:32.009628+00:00,1772844212009.627,0.414795,-0.528809,0.303955,0.618164,-0.476074,2.873047,20321,19240,20632,18869,0.450000,-0.550000,0.300000,0.000000,1772844212001.631,0.413422,-0.526706,0.303950,0.000000,0.000000,0.000000,1.000000,position_only
2026-03-07T00:43:32.017996+00:00,1772844212017.995,0.414307,-0.528809,0.303711,0.594727,-0.490967,2.898438,20287,19227,20640,18879,0.450000,-0.550000,0.300000,0.000000,1772844212010.148,0.413063,-0.526787,0.303795,0.000000,0.000000,0.000000,1.000000,position_only
2026-03-07T00:43:32.028620+00:00,1772844212028.619,0.413818,-0.529297,0.303711,0.562988,-0.513672,2.919922,20169,19335,20550,18926,0.450000,-0.550000,0.300000,0.000000,1772844212027.156,0.412317,-0.526901,0.303478,0.000000,0.000000,0.000000,1.000000,position_only
2026-03-07T00:43:32.040013+00:00,1772844212040.012,0.413330,-0.529297,0.303467,0.534180,-0.516602,2.939453,20218,19276,20610,18859,0.450000,-0.550000,0.300000,0.000000,1772844212035.647,0.411907,-0.527027,0.303328,0.000000,0.000000,0.000000,1.000000,position_only
2026-03-07T00:43:32.051299+00:00,1772844212051.298,0.413086,-0.529297,0.303223,0.505371,-0.513672,2.960938,20235,19293,20608,18805,0.450000,-0.550000,0.300000,0.000000,1772844212044.354,0.411564,-0.527097,0.303150,0.000000,0.000000,0.000000,1.000000,position_only
2026-03-07T00:43:32.060272+00:00,1772844212060.271,0.412354,-0.529297,0.302979,0.487793,-0.505859,2.982422,20214,19308,20562,18826,0.450000,-0.550000,0.300000,0.000000,1772844212052.843,0.411230,-0.527182,0.302977,0.000000,0.000000,0.000000,1.000000,position_only
2026-03-07T00:43:32.069692+00:00,1772844212069.690,0.412109,-0.529785,0.302979,0.475342,-0.501465,3.003906,20204,19282,20524,18876,0.450000,-0.550000,0.300000,0.000000,1772844212061.397,0.410880,-0.527257,0.302844,0.000000,0.000000,0.000000,1.000000,position_only
2026-03-07T00:43:32.079564+00:00,1772844212079.564,0.411621,-0.529785,0.302734,0.463623,-0.512207,3.019531,20290,19217,20617,18740,0.450000,-0.550000,0.300000,0.000000,1772844212078.398,0.410170,-0.527473,0.302564,0.000000,0.000000,0.000000,1.000000,position_only
