time_wall,time_ms,state_x,state_y,state_z,roll,pitch,yaw,u1_16,u2_16,u3_16,u4_16,setpoint_x,setpoint_y,setpoint_z,setpoint_yaw_deg,mocap_time_ms,mocap_x,mocap_y,mocap_z,mocap_qx,mocap_qy,mocap_qz,mocap_qw,mocap_mode
2026-03-07T16:01:20.829772+00:00,1772899280829.770,0.428955,-0.561035,0.322510,-0.256836,-0.422607,-0.160278,0,0,0,0,0.450000,-0.550000,0.300000,0.000000,1772899280828.211,0.426696,-0.561802,0.322346,0.000000,0.000000,0.000000,1.000000,position_only
2026-03-07T16:01:20.840805+00:00,1772899280840.804,0.429199,-0.560547,0.322510,-0.260498,-0.417480,-0.161011,0,0,0,0,0.450000,-0.550000,0.300000,0.000000,1772899280836.743,0.426836,-0.561675,0.322341,0.000000,0.000000,0.000000,1.000000,position_only
2026-03-07T16:01:20.850683+00:00,1772899280850.682,0.429443,-0.560547,0.322510,-0.248657,-0.411377,-0.162720,0,0,0,0,0.450000,-0.550000,0.300000,0.000000,1772899280845.310,0.426987,-0.561543,0.322315,0.000000,0.000000,0.000000,1.000000,position_only
2026-03-07T16:01:20.859854+00:00,1772899280859.853,0.429443,-0.560547,0.322510,-0.245728,-0.409424,-0.168823,0,0,0,0,0.450000,-0.550000,0.300000,0.000000,1772899280853.764,0.427098,-0.561452,0.322288,0.000000,0.000000,0.000000,1.000000,position_only
2026-03-07T16:01:20.869979+00:00,1772899280869.977,0.429688,-0.560059,0.322510,-0.243042,-0.394287,-0.172119,0,0,0,0,0.450000,-0.550000,0.300000,0.000000,1772899280862.310,0.427219,-0.561352,0.322260,0.000000,0.000000,0.000000,1.000000,position_only
2026-03-07T16:01:20.879730+00:00,1772899280879.729,0.429932,-0.560059,0.322510,-0.229736,-0.361816,-0.168457,0,0,0,0,0.450000,-0.550000,0.300000,0.000000,1772899280879.252,0.427552,-0.560994,0.322228,0.000000,0.000000,0.000000,1.000000,position_only
2026-03-07T16:01:20.890920+00:00,1772899280890.920,0.430176,-0.560059,0.322510,-0.223267,-0.334229,-0.166016,0,0,0,0,0.450000,-0.550000,0.300000,0.000000,1772899280888.063,0.427710,-0.560876,0.322205,0.000000,0.000000,0.000000,1.000000,position_only
2026-03-07T16:01:20.900700+00:00,1772899280900.699,0.430420,-0.559570,0.322266,-0.206665,-0.300537,-0.159058,0,0,0,0,0.450000,-0.550000,0.300000,0.000000,1772899280896.530,0.427866,-0.560714,0.322170,0.000000,0.000000,0.000000,1.000000,position_only
2026-03-07T16:01:20.910666+00:00,1772899280910.665,0.430420,-0.559570,0.322266,-0.189575,-0.270508,-0.152222,0,0,0,0,0.450000,-0.550000,0.300000,0.000000,1772899280905.077,0.427964,-0.560595,0.322157,0.000000,0.000000,0.000000,1.000000,position_only
2026-03-07T16:01:20.920463+00:00,1772899280920.463,0.430664,-0.559570,0.322266,-0.171387,-0.261719,-0.157593,0,0,0,0,0.450000,-0.550000,0.300000,0.000000,1772899280913.556,0.428111,-0.560503,0.322117,0.000000,0.000000,0.000000,1.000000,position_only
2026-03-07T16:01:20.930373+00:00,1772899280930.372,0.430664,-0.559570,0.322266,-0.150269,-0.233398,-0.154053,0,0,0,0,0.450000,-0.550000,0.300000,0.000000,1772899280922.047,0.428237,-0.560350,0.322085,0.000000,0.000000,0.000000,1.000000,position_only
2026-03-07T16:01:20.940232+00:00,1772899280940.231,0.430908,-0.559082,0.322266,-0.126831,-0.206055,-0.151123,0,0,0,0,0.450000,-0.550000,0.300000,0.000000,1772899280939.325,0.428587,-0.560127,0.322086,0.000000,0.000000,0.000000,1.000000,position_only
2026-03-07T16:01:20.950805+00:00,1772899280950.804,0.431152,-0.559082,0.322266,-0.111694,-0.185303,-0.153809,0,0,0,0,0.450000,-0.550000,0.300000,0.000000,1772899280947.822,0.428721,-0.560006,0.322045,0.000000,0.000000,0.000000,1.000000,position_only
2026-03-07T16:01:20.960874+00:00,1772899280960.873,0.431396,-0.559082,0.322266,-0.093994,-0.176758,-0.154541,0,0,0,0,0.450000,-0.550000,0.300000,0.000000,1772899280956.341,0.428851,-0.559873,0.322025,0.000000,0.000000,0.000000,1.000000,position_only
2026-03-07T16:01:20.969972+00:00,1772899280969.971,0.431396,-0.558594,0.322266,-0.083984,-0.174683,-0.158325,0,0,0,0,0.450000,-0.550000,0.300000,0.000000,1772899280965.211,0.429137,-0.559599,0.321999,0.000000,0.000000,0.000000,1.000000,position_only
2026-03-07T16:01:20.980441+00:00,1772899280980.441,0.431641,-0.558594,0.322266,-0.074829,-0.176758,-0.157593,0,0,0,0,0.450000,-0.550000,0.300000,0.000000,1772899280973.707,0.429323,-0.559474,0.321963,0.000000,0.000000,0.000000,1.000000,position_only
2026-03-07T16:01:20.991486+00:00,1772899280991.485,0.431885,-0.558594,0.322266,-0.073059,-0.187012,-0.160156,0,0,0,0,0.450000,-0.550000,0.300000,0.000000,1772899280990.944,0.429539,-0.559219,0.321944,0.000000,0.000000,0.000000,1.000000,position_only
2026-03-07T16:01:21.000673+00:00,1772899281000.671,0.431885,-0.558105,0.322266,-0.065063,-0.206177,-0.168579,0,0,0,0,0.450000,-0.550000,0.300000,0.000000,1772899280999.502,0.429684,-0.559082,0.321930,0.000000,0.000000,0.000000,1.000000,position_only
2026-03-07T16:01:21.010591+00:00,1772899281010.591,0.432129,-0.558105,0.322266,-0.044006,-0.224365,-0.173462,0,0,0,0,0.450000,-0.550000,0.300000,0.000000,1772899281008.059,0.429797,-0.558955,0.321883,0.000000,0.000000,0.000000,1.000000,position_only
2026-03-07T16:01:21.020003+00:00,1772899281020.003,0.432373,-0.558105,0.322266,-0.017654,-0.226562,-0.175659,0,0,0,0,0.450000,-0.550000,0.300000,0.000000,1772899281016.529,0.429940,-0.558833,0.321843,0.000000,0.000000,0.000000,1.000000,position_only
2026-03-07T16:01:21.030984+00:00,1772899281030.984,0.432373,-0.557617,0.322266,-0.007130,-0.218140,-0.178589,0,0,0,0,0.450000,-0.550000,0.300000,0.000000,1772899281025.009,0.430082,-0.558708,0.321814,0.000000,0.000000,0.000000,1.000000,position_only
2026-03-07T16:01:21.040041+00:00,1772899281040.041,0.432617,-0.557617,0.322021,0.008659,-0.181519,-0.178955,0,0,0,0,0.450000,-0.550000,0.300000,0.000000,1772899281033.529,0.430211,-0.558591,0.321782,0.000000,0.000000,0.000000,1.000000,position_only
2026-03-07T16:01:21.050001+00:00,1772899281050.000,0.432617,-0.557617,0.322021,0.003246,-0.161133,-0.182739,0,0,0,0,0.450000,-0.550000,0.300000,0.000000,1772899281042.010,0.430334,-0.558436,0.321765,0.000000,0.000000,0.000000,1.000000,position_only
2026-03-07T16:01:21.060033+00:00,1772899281060.031,0.432861,-0.557129,0.322021,0.007526,-0.143188,-0.180176,0,0,0,0,0.450000,-0.550000,0.300000,0.000000,1772899281058.964,0.430535,-0.558127,0.321715,0.000000,0.000000,0.000000,1.000000,position_only
2026-03-07T16:01:21.070641+00:00,1772899281070.640,0.433105,-0.557129,0.322021,0.008469,-0.138916,-0.185669,0,0,0,0,0.450000,-0.550000,0.300000,0.000000,1772899281067.530,0.430668,-0.558007,0.321690,0.000000,0.000000,0.000000,1.000000,position_only
2026-03-07T16:01:21.080837+00:00,1772899281080.836,0.433105,-0.557129,0.322021,0.013023,-0.127808,-0.191772,0,0,0,0,0.450000,-0.550000,0.300000,0.000000,1772899281076.262,0.430830,-0.557883,0.321639,0.000000,0.000000,0.000000,1.000000,position_only
2026-03-07T16:01:21.089969+00:00,1772899281089.969,0.433105,-0.557129,0.322021,0.021042,-0.125122,-0.195068,0,0,0,0,0.450000,-0.550000,0.300000,0.000000,1772899281084.821,0.430878,-0.557778,0.321611,0.000000,0.000000,0.000000,1.000000,position_only
2026-03-07T16:01:21.100711+00:00,1772899281100.711,0.433350,-0.556641,0.322021,0.030838,-0.125000,-0.194336,0,0,0,0,0.450000,-0.550000,0.300000,0.000000,1772899281093.395,0.430938,-0.557670,0.321606,0.000000,0.000000,0.000000,1.000000,position_only
2026-03-07T16:01:21.109961+00:00,1772899281109.960,0.433594,-0.556641,0.321777,0.036285,-0.114685,-0.192261,0,0,0,0,0.450000,-0.550000,0.300000,0.000000,1772899281101.875,0.431044,-0.557538,0.321566,0.000000,0.000000,0.000000,1.000000,position_only
2026-03-07T16:01:21.120665+00:00,1772899281120.664,0.433594,-0.556641,0.321777,0.037384,-0.106567,-0.198364,0,0,0,0,0.450000,-0.550000,0.300000,0.000000,1772899281118.849,0.431216,-0.557350,0.321504,0.000000,0.000000,0.000000,1.000000,position_only
2026-03-07T16:01:21.130552+00:00,1772899281130.551,0.433838,-0.556152,0.321777,0.039154,-0.107910,-0.197388,0,0,0,0,0.450000,-0.550000,0.300000,0.000000,1772899281127.471,0.431321,-0.557183,0.321483,0.000000,0.000000,0.000000,1.000000,position_only
2026-03-07T16:01:21.140687+00:00,1772899281140.686,0.433838,-0.556152,0.321777,0.047302,-0.117249,-0.204712,0,0,0,0,0.450000,-0.550000,0.300000,0.000000,1772899281135.969,0.431376,-0.557082,0.321455,0.000000,0.000000,0.000000,1.000000,position_only
2026-03-07T16:01:21.151515+00:00,1772899281151.514,0.433838,-0.556152,0.321777,0.065735,-0.117798,-0.208984,0,0,0,0,0.450000,-0.550000,0.300000,0.000000,1772899281144.590,0.431456,-0.556989,0.321421,0.000000,0.000000,0.000000,1.000000,position_only
2026-03-07T16:01:21.160361+00:00,1772899281160.360,0.433838,-0.556152,0.321533,0.083191,-0.122498,-0.212646,0,0,0,0,0.450000,-0.550000,0.300000,0.000000,1772899281153.071,0.431527,-0.556874,0.321373,0.000000,0.000000,0.000000,1.000000,position_only
2026-03-07T16:01:21.171577+00:00,1772899281171.576,0.434082,-0.555664,0.321533,0.080139,-0.125610,-0.210083,0,0,0,0,0.450000,-0.550000,0.300000,0.000000,1772899281170.413,0.431693,-0.556693,0.321287,0.000000,0.000000,0.000000,1.000000,position_only
2026-03-07T16:01:21.180390+00:00,1772899281180.389,0.434082,-0.555664,0.321533,0.077332,-0.126221,-0.202393,0,0,0,0,0.450000,-0.550000,0.300000,0.000000,1772899281179.025,0.431720,-0.556613,0.321257,0.000000,0.000000,0.000000,1.000000,position_only
2026-03-07T16:01:21.191110+00:00,1772899281191.110,0.434326,-0.555664,0.321533,0.074585,-0.124512,-0.197876,0,0,0,0,0.450000,-0.550000,0.300000,0.000000,1772899281187.529,0.431787,-0.556523,0.321213,0.000000,0.000000,0.000000,1.000000,position_only
2026-03-07T16:01:21.200263+00:00,1772899281200.262,0.434326,-0.555664,0.321533,0.060852,-0.134033,-0.196777,0,0,0,0,0.450000,-0.550000,0.300000,0.000000,1772899281196.276,0.431842,-0.556429,0.321163,0.000000,0.000000,0.000000,1.000000,position_only
2026-03-07T16:01:21.210961+00:00,1772899281210.961,0.434326,-0.555664,0.321289,0.051819,-0.124207,-0.191895,0,0,0,0,0.450000,-0.550000,0.300000,0.000000,1772899281204.785,0.431895,-0.556343,0.321097,0.000000,0.000000,0.000000,1.000000,position_only
2026-03-07T16:01:21.220215+00:00,1772899281220.215,0.434326,-0.555176,0.321289,0.053680,-0.110168,-0.181763,0,0,0,0,0.450000,-0.550000,0.300000,0.000000,1772899281213.277,0.431963,-0.556244,0.321054,0.000000,0.000000,0.000000,1.000000,position_only
2026-03-07T16:01:21.230423+00:00,1772899281230.422,0.434570,-0.555176,0.321289,0.056183,-0.112549,-0.182495,0,0,0,0,0.450000,-0.550000,0.300000,0.000000,1772899281230.258,0.432060,-0.556107,0.320951,0.000000,0.000000,0.000000,1.000000,position_only
2026-03-07T16:01:21.241269+00:00,1772899281241.268,0.434570,-0.555176,0.321289,0.062012,-0.113403,-0.184570,0,0,0,0,0.450000,-0.550000,0.300000,0.000000,1772899281238.829,0.432131,-0.555985,0.320916,0.000000,0.000000,0.000000,1.000000,position_only
2026-03-07T16:01:21.252038+00:00,1772899281252.037,0.434570,-0.555176,0.321045,0.077637,-0.115112,-0.191528,0,0,0,0,0.450000,-0.550000,0.300000,0.000000,1772899281247.360,0.432152,-0.555905,0.320862,0.000000,0.000000,0.000000,1.000000,position_only
2026-03-07T16:01:21.261480+00:00,1772899281261.480,0.434570,-0.555176,0.321045,0.086182,-0.121582,-0.193359,0,0,0,0,0.450000,-0.550000,0.300000,0.000000,1772899281255.829,0.432202,-0.555813,0.320816,0.000000,0.000000,0.000000,1.000000,position_only
2026-03-07T16:01:21.270998+00:00,1772899281270.997,0.434570,-0.555176,0.321045,0.089233,-0.130005,-0.196777,0,0,0,0,0.450000,-0.550000,0.300000,0.000000,1772899281264.330,0.432285,-0.555744,0.320762,0.000000,0.000000,0.000000,1.000000,position_only
2026-03-07T16:01:21.280965+00:00,1772899281280.964,0.434570,-0.554688,0.321045,0.073792,-0.159790,-0.204468,0,0,0,0,0.450000,-0.550000,0.300000,0.000000,1772899281272.858,0.432334,-0.555685,0.320694,0.000000,0.000000,0.000000,1.000000,position_only
2026-03-07T16:01:21.291766+00:00,1772899281291.765,0.434814,-0.554688,0.320801,0.061981,-0.177368,-0.206787,0,0,0,0,0.450000,-0.550000,0.300000,0.000000,1772899281290.033,0.432397,-0.555440,0.320591,0.000000,0.000000,0.000000,1.000000,position_only
2026-03-07T16:01:21.301069+00:00,1772899281301.069,0.434814,-0.554688,0.320801,0.065796,-0.178345,-0.207886,0,0,0,0,0.450000,-0.550000,0.300000,0.000000,1772899281298.516,0.432418,-0.555368,0.320566,0.000000,0.000000,0.000000,1.000000,position_only
2026-03-07T16:01:21.312035+00:00,1772899281312.034,0.434814,-0.554688,0.320801,0.056366,-0.189575,-0.207153,0,0,0,0,0.450000,-0.550000,0.300000,0.000000,1772899281307.013,0.432458,-0.555286,0.320520,0.000000,0.000000,0.000000,1.000000,position_only
2026-03-07T16:01:21.321252+00:00,1772899281321.251,0.434814,-0.554688,0.320801,0.045349,-0.192993,-0.210083,0,0,0,0,0.450000,-0.550000,0.300000,0.000000,1772899281315.498,0.432403,-0.555222,0.320502,0.000000,0.000000,0.000000,1.000000,position_only
2026-03-07T16:01:21.331755+00:00,1772899281331.755,0.434814,-0.554688,0.320801,0.046692,-0.184570,-0.209106,0,0,0,0,0.450000,-0.550000,0.300000,0.000000,1772899281323.934,0.432437,-0.555190,0.320456,0.000000,0.000000,0.000000,1.000000,position_only
2026-03-07T16:01:21.341185+00:00,1772899281341.184,0.434814,-0.554199,0.320557,0.048553,-0.187988,-0.207153,0,0,0,0,0.450000,-0.550000,0.300000,0.000000,1772899281332.627,0.432463,-0.555113,0.320411,0.000000,0.000000,0.000000,1.000000,position_only
2026-03-07T16:01:21.351501+00:00,1772899281351.500,0.434814,-0.554199,0.320557,0.039124,-0.198486,-0.207397,0,0,0,0,0.450000,-0.550000,0.300000,0.000000,1772899281349.802,0.432487,-0.554978,0.320357,0.000000,0.000000,0.000000,1.000000,position_only
2026-03-07T16:01:21.361032+00:00,1772899281361.031,0.434814,-0.554199,0.320557,0.049164,-0.198608,-0.211426,0,0,0,0,0.450000,-0.550000,0.300000,0.000000,1772899281358.387,0.432492,-0.554917,0.320323,0.000000,0.000000,0.000000,1.000000,position_only
2026-03-07T16:01:21.371269+00:00,1772899281371.268,0.434814,-0.554199,0.320557,0.047699,-0.205078,-0.219971,0,0,0,0,0.450000,-0.550000,0.300000,0.000000,1772899281366.973,0.432478,-0.554879,0.320302,0.000000,0.000000,0.000000,1.000000,position_only
2026-03-07T16:01:21.384483+00:00,1772899281384.482,0.434814,-0.554199,0.320557,0.033783,-0.235718,-0.227295,19466,19380,19483,19436,0.450000,-0.550000,0.300000,0.000000,1772899281384.441,0.432506,-0.554750,0.320245,0.000000,0.000000,0.000000,1.000000,position_only
2026-03-07T16:01:21.390958+00:00,1772899281390.957,0.434814,-0.554199,0.320557,0.033783,-0.235718,-0.227295,19439,19421,19445,19439,0.450000,-0.550000,0.300000,0.000000,1772899281384.441,0.432506,-0.554750,0.320245,0.000000,0.000000,0.000000,1.000000,position_only
2026-03-07T16:01:21.401575+00:00,1772899281401.574,0.434814,-0.554199,0.320312,0.009598,-0.280762,-0.218872,19625,19248,19631,19244,0.450000,-0.550000,0.300000,0.000000,1772899281393.127,0.432530,-0.554694,0.320224,0.000000,0.000000,0.000000,1.000000,position_only
2026-03-07T16:01:21.412423+00:00,1772899281412.422,0.434814,-0.553711,0.320312,0.002506,-0.284668,-0.186646,19729,19080,19839,19101,0.450000,-0.550000,0.300000,0.000000,1772899281410.111,0.432547,-0.554603,0.320172,0.000000,0.000000,0.000000,1.000000,position_only
2026-03-07T16:01:21.422396+00:00,1772899281422.395,0.434814,-0.553711,0.320312,-0.023956,-0.275391,-0.154907,19666,19110,19891,19067,0.450000,-0.550000,0.300000,0.000000,1772899281418.587,0.432534,-0.554562,0.320155,0.000000,0.000000,0.000000,1.000000,position_only
2026-03-07T16:01:21.434109+00:00,1772899281434.108,0.434814,-0.553711,0.320312,-0.023956,-0.275391,-0.154907,19604,19231,19928,18973,0.450000,-0.550000,0.300000,0.000000,1772899281427.170,0.432508,-0.554525,0.320141,0.000000,0.000000,0.000000,1.000000,position_only
2026-03-07T16:01:21.441861+00:00,1772899281441.861,0.434814,-0.553711,0.320312,-0.043060,-0.232422,-0.120361,19473,19370,19804,19085,0.450000,-0.550000,0.300000,0.000000,1772899281435.979,0.432493,-0.554462,0.320127,0.000000,0.000000,0.000000,1.000000,position_only
2026-03-07T16:01:21.452544+00:00,1772899281452.543,0.434570,-0.553711,0.320312,-0.050598,-0.148193,-0.089417,19461,19397,19952,18907,0.450000,-0.550000,0.300000,0.000000,1772899281444.483,0.432468,-0.554378,0.320149,0.000000,0.000000,0.000000,1.000000,position_only
2026-03-07T16:01:21.462918+00:00,1772899281462.917,0.434814,-0.553711,0.320312,-0.046265,-0.010307,-0.056458,19420,19465,19959,18853,0.450000,-0.550000,0.300000,0.000000,1772899281461.433,0.432399,-0.554349,0.320113,0.000000,0.000000,0.000000,1.000000,position_only
2026-03-07T16:01:21.471149+00:00,1772899281471.148,0.434814,-0.553711,0.320312,-0.033112,0.137451,-0.024155,19384,19555,19911,18837,0.450000,-0.550000,0.300000,0.000000,1772899281470.004,0.432348,-0.554304,0.320145,0.000000,0.000000,0.000000,1.000000,position_only
2026-03-07T16:01:21.481747+00:00,1772899281481.746,0.434814,-0.553711,0.320312,-0.004192,0.309326,0.006939,19572,19396,20201,18514,0.450000,-0.550000,0.300000,0.000000,1772899281478.606,0.432239,-0.554273,0.320147,0.000000,0.000000,0.000000,1.000000,position_only
2026-03-07T16:01:21.493364+00:00,1772899281493.363,0.434570,-0.553711,0.320312,0.035645,0.494629,0.052856,19402,19558,19997,18709,0.450000,-0.550000,0.300000,0.000000,1772899281487.127,0.432156,-0.554235,0.320166,0.000000,0.000000,0.000000,1.000000,position_only
2026-03-07T16:01:21.502837+00:00,1772899281502.836,0.434570,-0.553711,0.320312,0.080200,0.672363,0.091797,19392,19602,19900,18760,0.450000,-0.550000,0.300000,0.000000,1772899281495.658,0.432119,-0.554197,0.320177,0.000000,0.000000,0.000000,1.000000,position_only
2026-03-07T16:01:21.512105+00:00,1772899281512.104,0.434326,-0.553711,0.320312,0.137939,0.847656,0.125488,19460,19549,19962,18670,0.450000,-0.550000,0.300000,0.000000,1772899281504.161,0.431996,-0.554201,0.320188,0.000000,0.000000,0.000000,1.000000,position_only
2026-03-07T16:01:21.522094+00:00,1772899281522.093,0.434326,-0.553711,0.320312,0.201294,0.996094,0.156250,19497,19510,19885,18739,0.450000,-0.550000,0.300000,0.000000,1772899281521.374,0.431767,-0.554157,0.320239,0.000000,0.000000,0.000000,1.000000,position_only
2026-03-07T16:01:21.532763+00:00,1772899281532.762,0.434326,-0.553711,0.320557,0.259033,1.108398,0.185791,19732,19317,20102,18479,0.450000,-0.550000,0.300000,0.000000,1772899281529.825,0.431618,-0.554127,0.320255,0.000000,0.000000,0.000000,1.000000,position_only
2026-03-07T16:01:21.542684+00:00,1772899281542.684,0.434082,-0.553223,0.320557,0.317383,1.194336,0.228760,19588,19440,19837,18766,0.450000,-0.550000,0.300000,0.000000,1772899281538.311,0.431493,-0.554120,0.320310,0.000000,0.000000,0.000000,1.000000,position_only
2026-03-07T16:01:21.552068+00:00,1772899281552.068,0.433838,-0.553223,0.320557,0.373779,1.240234,0.260742,19713,19319,19929,18657,0.450000,-0.550000,0.300000,0.000000,1772899281546.781,0.431314,-0.554103,0.320361,0.000000,0.000000,0.000000,1.000000,position_only
2026-03-07T16:01:21.561514+00:00,1772899281561.513,0.433838,-0.553223,0.320557,0.426514,1.268555,0.293701,19735,19298,19938,18628,0.450000,-0.550000,0.300000,0.000000,1772899281555.319,0.431158,-0.554118,0.320412,0.000000,0.000000,0.000000,1.000000,position_only
2026-03-07T16:01:21.572514+00:00,1772899281572.513,0.433350,-0.553223,0.320557,0.489014,1.296875,0.333496,19830,19232,20043,18494,0.450000,-0.550000,0.300000,0.000000,1772899281563.905,0.430975,-0.554127,0.320463,0.000000,0.000000,0.000000,1.000000,position_only
2026-03-07T16:01:21.582814+00:00,1772899281582.813,0.433105,-0.553223,0.320801,0.541504,1.308594,0.372314,19711,19312,19879,18704,0.450000,-0.550000,0.300000,0.000000,1772899281581.161,0.430584,-0.554136,0.320601,0.000000,0.000000,0.000000,1.000000,position_only
2026-03-07T16:01:21.591469+00:00,1772899281591.468,0.432861,-0.553711,0.320801,0.575684,1.301758,0.398438,19661,19298,19907,18728,0.450000,-0.550000,0.300000,0.000000,1772899281589.646,0.430352,-0.554189,0.320655,0.000000,0.000000,0.000000,1.000000,position_only
2026-03-07T16:01:21.602295+00:00,1772899281602.293,0.432373,-0.553711,0.320801,0.598633,1.299805,0.426758,19732,19268,19937,18646,0.450000,-0.550000,0.300000,0.000000,1772899281598.166,0.429826,-0.554287,0.320789,0.000000,0.000000,0.000000,1.000000,position_only
2026-03-07T16:01:21.613737+00:00,1772899281613.736,0.432129,-0.553711,0.321045,0.626465,1.295898,0.461426,19812,19163,20015,18596,0.450000,-0.550000,0.300000,0.000000,1772899281606.646,0.429546,-0.554332,0.320863,0.000000,0.000000,0.000000,1.000000,position_only
2026-03-07T16:01:21.622232+00:00,1772899281622.231,0.431641,-0.553711,0.321045,0.639648,1.281250,0.500977,19672,19230,19973,18701,0.450000,-0.550000,0.300000,0.000000,1772899281615.168,0.429256,-0.554351,0.320941,0.000000,0.000000,0.000000,1.000000,position_only
2026-03-07T16:01:21.632565+00:00,1772899281632.564,0.431152,-0.553711,0.321045,0.625000,1.268555,0.532227,19633,19220,20000,18697,0.450000,-0.550000,0.300000,0.000000,1772899281632.185,0.428531,-0.554449,0.321154,0.000000,0.000000,0.000000,1.000000,position_only
2026-03-07T16:01:21.640961+00:00,1772899281640.961,0.430664,-0.553711,0.321289,0.608887,1.275391,0.565430,19646,19211,20019,18672,0.450000,-0.550000,0.300000,0.000000,1772899281632.185,0.428531,-0.554449,0.321154,0.000000,0.000000,0.000000,1.000000,position_only
2026-03-07T16:01:21.652289+00:00,1772899281652.288,0.430176,-0.553711,0.321289,0.586426,1.262695,0.587891,19473,19373,19822,18856,0.450000,-0.550000,0.300000,0.000000,1772899281649.501,0.427802,-0.554604,0.321281,0.000000,0.000000,0.000000,1.000000,position_only
2026-03-07T16:01:21.664632+00:00,1772899281664.631,0.429932,-0.554199,0.321289,0.586426,1.262695,0.587891,19539,19260,19956,18749,0.450000,-0.550000,0.300000,0.000000,1772899281657.965,0.427450,-0.554682,0.321372,0.000000,0.000000,0.000000,1.000000,position_only
2026-03-07T16:01:21.674460+00:00,1772899281674.459,0.429443,-0.554199,0.321533,0.563965,1.261719,0.615723,19617,19168,20045,18650,0.450000,-0.550000,0.300000,0.000000,1772899281666.532,0.427052,-0.554749,0.321448,0.000000,0.000000,0.000000,1.000000,position_only
2026-03-07T16:01:21.681262+00:00,1772899281681.261,0.428955,-0.554199,0.321533,0.530273,1.246094,0.641602,19615,19173,19993,18671,0.450000,-0.550000,0.300000,0.000000,1772899281675.467,0.426576,-0.554885,0.321513,0.000000,0.000000,0.000000,1.000000,position_only
2026-03-07T16:01:21.692368+00:00,1772899281692.367,0.428223,-0.554199,0.321777,0.498779,1.227539,0.671875,19621,19217,19918,18681,0.450000,-0.550000,0.300000,0.000000,1772899281684.201,0.426105,-0.555012,0.321634,0.000000,0.000000,0.000000,1.000000,position_only
2026-03-07T16:01:21.702387+00:00,1772899281702.386,0.427734,-0.554688,0.321777,0.478760,1.201172,0.702148,19592,19250,19814,18765,0.450000,-0.550000,0.300000,0.000000,1772899281701.223,0.425191,-0.555183,0.321832,0.000000,0.000000,0.000000,1.000000,position_only
2026-03-07T16:01:21.711366+00:00,1772899281711.365,0.427002,-0.554688,0.322021,0.473389,1.143555,0.722168,19650,19196,19800,18755,0.450000,-0.550000,0.300000,0.000000,1772899281709.856,0.424732,-0.555356,0.321929,0.000000,0.000000,0.000000,1.000000,position_only
2026-03-07T16:01:21.722682+00:00,1772899281722.681,0.426514,-0.554688,0.322266,0.464355,1.061523,0.742676,19697,19135,19793,18769,0.450000,-0.550000,0.300000,0.000000,1772899281718.364,0.424250,-0.555434,0.322054,0.000000,0.000000,0.000000,1.000000,position_only
2026-03-07T16:01:21.735089+00:00,1772899281735.088,0.425537,-0.555176,0.322266,0.456787,0.961914,0.760742,19775,19027,19902,18691,0.450000,-0.550000,0.300000,0.000000,1772899281726.898,0.423743,-0.555551,0.322152,0.000000,0.000000,0.000000,1.000000,position_only
2026-03-07T16:01:21.742633+00:00,1772899281742.632,0.425049,-0.555176,0.322510,0.446777,0.849121,0.789062,19767,19031,19854,18731,0.450000,-0.550000,0.300000,0.000000,1772899281735.401,0.423243,-0.555723,0.322214,0.000000,0.000000,0.000000,1.000000,position_only
2026-03-07T16:01:21.752055+00:00,1772899281752.053,0.424316,-0.555664,0.322754,0.432617,0.741699,0.808594,19851,18919,19989,18625,0.450000,-0.550000,0.300000,0.000000,1772899281744.139,0.422735,-0.555863,0.322307,0.000000,0.000000,0.000000,1.000000,position_only
2026-03-07T16:01:21.762683+00:00,1772899281762.681,0.423584,-0.555664,0.322754,0.406250,0.634766,0.843750,19640,19094,19767,18894,0.450000,-0.550000,0.300000,0.000000,1772899281761.153,0.421664,-0.556182,0.322521,0.000000,0.000000,0.000000,1.000000,position_only
2026-03-07T16:01:21.772275+00:00,1772899281772.274,0.422852,-0.555664,0.322998,0.368408,0.522949,0.858887,19597,19101,19819,18897,0.450000,-0.550000,0.300000,0.000000,1772899281769.735,0.421169,-0.556316,0.322607,0.000000,0.000000,0.000000,1.000000,position_only
2026-03-07T16:01:21.782740+00:00,1772899281782.739,0.422119,-0.556152,0.322998,0.317139,0.422852,0.876465,19610,19080,19869,18878,0.450000,-0.550000,0.300000,0.000000,1772899281778.410,0.420565,-0.556484,0.322703,0.000000,0.000000,0.000000,1.000000,position_only
2026-03-07T16:01:21.794340+00:00,1772899281794.339,0.421143,-0.556152,0.322998,0.248413,0.329834,0.900879,19650,19023,20030,18744,0.450000,-0.550000,0.300000,0.000000,1772899281786.910,0.419978,-0.556706,0.322802,0.000000,0.000000,0.000000,1.000000,position_only
2026-03-07T16:01:21.803625+00:00,1772899281803.625,0.420410,-0.556641,0.323242,0.184082,0.277344,0.925781,19495,19152,19904,18898,0.450000,-0.550000,0.300000,0.000000,1772899281795.523,0.419455,-0.556822,0.322892,0.000000,0.000000,0.000000,1.000000,position_only
2026-03-07T16:01:21.812727+00:00,1772899281812.726,0.419678,-0.556641,0.323242,0.107788,0.231323,0.946289,19537,19151,20029,18714,0.450000,-0.550000,0.300000,0.000000,1772899281804.079,0.418863,-0.557038,0.322967,0.000000,0.000000,0.000000,1.000000,position_only
2026-03-07T16:01:21.822664+00:00,1772899281822.664,0.418945,-0.557129,0.323486,0.050781,0.205933,0.967773,19535,19128,20012,18756,0.450000,-0.550000,0.300000,0.000000,1772899281821.531,0.417617,-0.557305,0.323141,0.000000,0.000000,0.000000,1.000000,position_only
2026-03-07T16:01:21.833429+00:00,1772899281833.428,0.417969,-0.557129,0.323486,-0.005707,0.181030,0.989746,19449,19222,19927,18835,0.450000,-0.550000,0.300000,0.000000,1772899281830.109,0.417027,-0.557504,0.323198,0.000000,0.000000,0.000000,1.000000,position_only
2026-03-07T16:01:21.843266+00:00,1772899281843.265,0.417969,-0.557129,0.323486,-0.005707,0.181030,0.989746,19630,19061,20042,18685,0.450000,-0.550000,0.300000,0.000000,1772899281838.641,0.416430,-0.557677,0.323330,0.000000,0.000000,0.000000,1.000000,position_only
2026-03-07T16:01:21.853663+00:00,1772899281853.662,0.417236,-0.557617,0.323486,-0.064575,0.150146,1.011719,19605,19126,20003,18667,0.450000,-0.550000,0.300000,0.000000,1772899281847.316,0.415823,-0.557814,0.323427,0.000000,0.000000,0.000000,1.000000,position_only
2026-03-07T16:01:21.863008+00:00,1772899281863.008,0.416504,-0.557617,0.323730,-0.095459,0.133179,1.043945,19502,19262,19793,18817,0.450000,-0.550000,0.300000,0.000000,1772899281855.850,0.415184,-0.558010,0.323490,0.000000,0.000000,0.000000,1.000000,position_only
2026-03-07T16:01:21.875223+00:00,1772899281875.222,0.415527,-0.558105,0.323730,-0.114441,0.095215,1.064453,19500,19288,19732,18833,0.450000,-0.550000,0.300000,0.000000,1772899281873.273,0.413442,-0.558575,0.323787,0.000000,0.000000,0.000000,1.000000,position_only
2026-03-07T16:01:21.882939+00:00,1772899281882.938,0.414795,-0.558105,0.323975,-0.120667,0.035370,1.071289,19708,19113,19865,18662,0.450000,-0.550000,0.300000,0.000000,1772899281881.766,0.413442,-0.558575,0.323787,0.000000,0.000000,0.000000,1.000000,position_only
2026-03-07T16:01:21.891627+00:00,1772899281891.627,0.413818,-0.558594,0.323975,-0.111633,-0.043457,1.088867,19789,19059,19937,18555,0.450000,-0.550000,0.300000,0.000000,1772899281890.390,0.412166,-0.558923,0.323987,0.000000,0.000000,0.000000,1.000000,position_only
2026-03-07T16:01:21.903266+00:00,1772899281903.265,0.413086,-0.558594,0.324219,-0.086975,-0.119446,1.115234,19642,19209,19669,18799,0.450000,-0.550000,0.300000,0.000000,1772899281898.887,0.412166,-0.558923,0.323987,0.000000,0.000000,0.000000,1.000000,position_only
2026-03-07T16:01:21.913476+00:00,1772899281913.475,0.412109,-0.559082,0.324463,-0.057709,-0.212646,1.123047,19822,19048,19836,18618,0.450000,-0.550000,0.300000,0.000000,1772899281907.618,0.410931,-0.559265,0.324217,0.000000,0.000000,0.000000,1.000000,position_only
2026-03-07T16:01:21.922996+00:00,1772899281922.995,0.411377,-0.559082,0.324463,-0.017746,-0.306152,1.143555,19789,19056,19747,18745,0.450000,-0.550000,0.300000,0.000000,1772899281916.308,0.410354,-0.559458,0.324307,0.000000,0.000000,0.000000,1.000000,position_only
2026-03-07T16:01:21.931993+00:00,1772899281931.992,0.410645,-0.559570,0.324707,0.002552,-0.418945,1.158203,19859,18979,19835,18671,0.450000,-0.550000,0.300000,0.000000,1772899281924.808,0.409707,-0.559620,0.324438,0.000000,0.000000,0.000000,1.000000,position_only
2026-03-07T16:01:21.943381+00:00,1772899281943.381,0.409912,-0.559570,0.324707,0.008614,-0.527344,1.175781,19733,19022,19763,18822,0.450000,-0.550000,0.300000,0.000000,1772899281941.876,0.408584,-0.559994,0.324619,0.000000,0.000000,0.000000,1.000000,position_only
2026-03-07T16:01:21.953244+00:00,1772899281953.244,0.408936,-0.560059,0.324951,-0.010658,-0.654297,1.188477,19734,19058,19752,18798,0.450000,-0.550000,0.300000,0.000000,1772899281950.433,0.407971,-0.560199,0.324692,0.000000,0.000000,0.000000,1.000000,position_only
2026-03-07T16:01:21.962221+00:00,1772899281962.220,0.408203,-0.560059,0.324951,-0.018646,-0.771973,1.205078,19716,19048,19802,18784,0.450000,-0.550000,0.300000,0.000000,1772899281958.946,0.407376,-0.560329,0.324787,0.000000,0.000000,0.000000,1.000000,position_only
2026-03-07T16:01:21.975322+00:00,1772899281975.321,0.407959,-0.560059,0.324951,-0.018646,-0.771973,1.205078,19633,19055,19831,18833,0.450000,-0.550000,0.300000,0.000000,1772899281967.481,0.406822,-0.560475,0.324872,0.000000,0.000000,0.000000,1.000000,position_only
2026-03-07T16:01:21.982259+00:00,1772899281982.259,0.407227,-0.560547,0.325195,-0.052673,-0.879883,1.216797,19730,18938,19952,18738,0.450000,-0.550000,0.300000,0.000000,1772899281976.011,0.406209,-0.560670,0.324978,0.000000,0.000000,0.000000,1.000000,position_only
2026-03-07T16:01:21.993690+00:00,1772899281993.690,0.406250,-0.560547,0.325195,-0.099670,-0.957031,1.237305,19583,19026,19893,18858,0.450000,-0.550000,0.300000,0.000000,1772899281993.082,0.405118,-0.560944,0.325152,0.000000,0.000000,0.000000,1.000000,position_only
2026-03-07T16:01:22.003304+00:00,1772899282003.302,0.405762,-0.561035,0.325195,-0.148193,-1.011719,1.253906,19419,19184,19771,18990,0.450000,-0.550000,0.300000,0.000000,1772899282001.749,0.404531,-0.561074,0.325222,0.000000,0.000000,0.000000,1.000000,position_only
2026-03-07T16:01:22.013773+00:00,1772899282013.771,0.405029,-0.561035,0.325439,-0.217529,-1.068359,1.263672,19537,19098,19922,18802,0.450000,-0.550000,0.300000,0.000000,1772899282010.380,0.403998,-0.561195,0.325342,0.000000,0.000000,0.000000,1.000000,position_only
2026-03-07T16:01:22.022945+00:00,1772899282022.945,0.404297,-0.561523,0.325439,-0.267334,-1.088867,1.278320,19485,19113,19906,18835,0.450000,-0.550000,0.300000,0.000000,1772899282018.915,0.403534,-0.561325,0.325396,0.000000,0.000000,0.000000,1.000000,position_only
2026-03-07T16:01:22.033703+00:00,1772899282033.702,0.403564,-0.561523,0.325439,-0.317383,-1.099609,1.292969,19568,19051,20017,18694,0.450000,-0.550000,0.300000,0.000000,1772899282027.439,0.402953,-0.561560,0.325475,0.000000,0.000000,0.000000,1.000000,position_only
2026-03-07T16:01:22.043201+00:00,1772899282043.200,0.402832,-0.561523,0.325684,-0.364746,-1.097656,1.314453,19538,19067,19993,18732,0.450000,-0.550000,0.300000,0.000000,1772899282036.012,0.402388,-0.561716,0.325626,0.000000,0.000000,0.000000,1.000000,position_only
2026-03-07T16:01:22.052959+00:00,1772899282052.958,0.402344,-0.562012,0.325684,-0.416748,-1.098633,1.335938,19609,19020,20029,18667,0.450000,-0.550000,0.300000,0.000000,1772899282044.516,0.401940,-0.561797,0.325723,0.000000,0.000000,0.000000,1.000000,position_only
2026-03-07T16:01:22.062969+00:00,1772899282062.969,0.401611,-0.562012,0.325928,-0.452881,-1.109375,1.357422,19478,19242,19794,18806,0.450000,-0.550000,0.300000,0.000000,1772899282061.655,0.400957,-0.562034,0.325920,0.000000,0.000000,0.000000,1.000000,position_only
2026-03-07T16:01:22.073837+00:00,1772899282073.837,0.401123,-0.562012,0.325928,-0.459717,-1.120117,1.367188,19608,19104,19879,18724,0.450000,-0.550000,0.300000,0.000000,1772899282070.255,0.400540,-0.562132,0.326011,0.000000,0.000000,0.000000,1.000000,position_only
2026-03-07T16:01:22.082466+00:00,1772899282082.465,0.400635,-0.562500,0.326172,-0.456055,-1.146484,1.380859,19586,19147,19763,18816,0.450000,-0.550000,0.300000,0.000000,1772899282078.762,0.400044,-0.562294,0.326102,0.000000,0.000000,0.000000,1.000000,position_only
2026-03-07T16:01:22.092963+00:00,1772899282092.962,0.400146,-0.562500,0.326172,-0.442383,-1.181641,1.389648,19621,19162,19729,18782,0.450000,-0.550000,0.300000,0.000000,1772899282087.322,0.399589,-0.562447,0.326203,0.000000,0.000000,0.000000,1.000000,position_only
2026-03-07T16:01:22.103438+00:00,1772899282103.438,0.399414,-0.562500,0.326416,-0.413330,-1.227539,1.394531,19639,19147,19714,18776,0.450000,-0.550000,0.300000,0.000000,1772899282095.840,0.399142,-0.562522,0.326285,0.000000,0.000000,0.000000,1.000000,position_only
2026-03-07T16:01:22.114281+00:00,1772899282114.280,0.398926,-0.562988,0.326416,-0.385986,-1.281250,1.400391,19747,19066,19773,18683,0.450000,-0.550000,0.300000,0.000000,1772899282112.998,0.398315,-0.562726,0.326478,0.000000,0.000000,0.000000,1.000000,position_only
2026-03-07T16:01:22.122671+00:00,1772899282122.669,0.398438,-0.562988,0.326660,-0.350098,-1.336914,1.416992,19766,19006,19821,18672,0.450000,-0.550000,0.300000,0.000000,1772899282121.506,0.397926,-0.562785,0.326598,0.000000,0.000000,0.000000,1.000000,position_only
2026-03-07T16:01:22.134072+00:00,1772899282134.072,0.397949,-0.562988,0.326660,-0.330322,-1.382812,1.431641,19694,19061,19833,18658,0.450000,-0.550000,0.300000,0.000000,1772899282130.066,0.397558,-0.562865,0.326694,0.000000,0.000000,0.000000,1.000000,position_only
2026-03-07T16:01:22.145364+00:00,1772899282145.364,0.397461,-0.562988,0.326904,-0.313232,-1.417969,1.443359,19625,19079,19814,18711,0.450000,-0.550000,0.300000,0.000000,1772899282138.530,0.397235,-0.562973,0.326763,0.000000,0.000000,0.000000,1.000000,position_only
2026-03-07T16:01:22.152961+00:00,1772899282152.960,0.397217,-0.562988,0.326904,-0.312256,-1.433594,1.460938,19659,19016,19910,18649,0.450000,-0.550000,0.300000,0.000000,1772899282147.035,0.396871,-0.563066,0.326831,0.000000,0.000000,0.000000,1.000000,position_only
2026-03-07T16:01:22.162677+00:00,1772899282162.677,0.397217,-0.562988,0.326904,-0.312256,-1.433594,1.460938,19652,19020,19962,18599,0.450000,-0.550000,0.300000,0.000000,1772899282155.586,0.396494,-0.563111,0.326932,0.000000,0.000000,0.000000,1.000000,position_only
2026-03-07T16:01:22.172888+00:00,1772899282172.887,0.396484,-0.563477,0.327148,-0.341309,-1.437500,1.498047,19512,19094,19837,18791,0.450000,-0.550000,0.300000,0.000000,1772899282172.649,0.395859,-0.563196,0.327100,0.000000,0.000000,0.000000,1.000000,position_only
2026-03-07T16:01:22.184231+00:00,1772899282184.230,0.395996,-0.563477,0.327393,-0.363770,-1.422852,1.513672,19547,19062,19971,18636,0.450000,-0.550000,0.300000,0.000000,1772899282181.187,0.395550,-0.563267,0.327158,0.000000,0.000000,0.000000,1.000000,position_only
2026-03-07T16:01:22.193225+00:00,1772899282193.224,0.395996,-0.563477,0.327393,-0.363770,-1.422852,1.513672,19622,18942,20091,18563,0.450000,-0.550000,0.300000,0.000000,1772899282189.748,0.394935,-0.563432,0.327284,0.000000,0.000000,0.000000,1.000000,position_only
2026-03-07T16:01:22.205301+00:00,1772899282205.300,0.395752,-0.563477,0.327393,-0.392822,-1.395508,1.537109,19425,19168,19878,18761,0.450000,-0.550000,0.300000,0.000000,1772899282198.335,0.394687,-0.563461,0.327354,0.000000,0.000000,0.000000,1.000000,position_only
2026-03-07T16:01:22.213215+00:00,1772899282213.214,0.395508,-0.563477,0.327637,-0.425781,-1.366211,1.563477,19546,19083,20051,18559,0.450000,-0.550000,0.300000,0.000000,1772899282206.844,0.394687,-0.563461,0.327354,0.000000,0.000000,0.000000,1.000000,position_only
2026-03-07T16:01:22.225764+00:00,1772899282225.763,0.395020,-0.563477,0.327637,-0.446777,-1.323242,1.581055,19540,19092,20062,18535,0.450000,-0.550000,0.300000,0.000000,1772899282223.886,0.394196,-0.563456,0.327531,0.000000,0.000000,0.000000,1.000000,position_only
2026-03-07T16:01:22.233545+00:00,1772899282233.545,0.394775,-0.563477,0.327881,-0.451172,-1.253906,1.610352,19479,19175,19920,18651,0.450000,-0.550000,0.300000,0.000000,1772899282232.481,0.393702,-0.563487,0.327668,0.000000,0.000000,0.000000,1.000000,position_only
2026-03-07T16:01:22.243387+00:00,1772899282243.386,0.394531,-0.563477,0.327881,-0.458252,-1.193359,1.629883,19365,19252,19728,18883,0.450000,-0.550000,0.300000,0.000000,1772899282241.010,0.393489,-0.563493,0.327717,0.000000,0.000000,0.000000,1.000000,position_only
2026-03-07T16:01:22.253220+00:00,1772899282253.220,0.394287,-0.563477,0.327881,-0.465332,-1.179688,1.631836,19527,19109,19884,18707,0.450000,-0.550000,0.300000,0.000000,1772899282249.533,0.393307,-0.563520,0.327774,0.000000,0.000000,0.000000,1.000000,position_only
2026-03-07T16:01:22.266060+00:00,1772899282266.059,0.394043,-0.563477,0.328125,-0.469727,-1.173828,1.640625,19715,19005,20066,18444,0.450000,-0.550000,0.300000,0.000000,1772899282258.060,0.393080,-0.563528,0.327831,0.000000,0.000000,0.000000,1.000000,position_only
2026-03-07T16:01:22.273628+00:00,1772899282273.628,0.393799,-0.563477,0.328125,-0.448975,-1.142578,1.668945,19468,19239,19729,18801,0.450000,-0.550000,0.300000,0.000000,1772899282266.531,0.392910,-0.563549,0.327892,0.000000,0.000000,0.000000,1.000000,position_only
2026-03-07T16:01:22.283418+00:00,1772899282283.417,0.393555,-0.563477,0.328125,-0.431152,-1.130859,1.679688,19622,19090,19852,18680,0.450000,-0.550000,0.300000,0.000000,1772899282275.254,0.392752,-0.563542,0.327969,0.000000,0.000000,0.000000,1.000000,position_only
2026-03-07T16:01:22.292474+00:00,1772899282292.474,0.393555,-0.563477,0.328369,-0.408691,-1.131836,1.691406,19742,19035,19918,18552,0.450000,-0.550000,0.300000,0.000000,1772899282292.261,0.392423,-0.563584,0.328039,0.000000,0.000000,0.000000,1.000000,position_only
2026-03-07T16:01:22.303977+00:00,1772899282303.976,0.393311,-0.563477,0.328369,-0.371094,-1.131836,1.711914,19526,19262,19658,18795,0.450000,-0.550000,0.300000,0.000000,1772899282300.837,0.392334,-0.563552,0.328081,0.000000,0.000000,0.000000,1.000000,position_only
2026-03-07T16:01:22.313618+00:00,1772899282313.618,0.393066,-0.563477,0.328369,-0.330322,-1.142578,1.718750,19595,19158,19715,18769,0.450000,-0.550000,0.300000,0.000000,1772899282309.411,0.392201,-0.563552,0.328120,0.000000,0.000000,0.000000,1.000000,position_only
2026-03-07T16:01:22.324404+00:00,1772899282324.403,0.393066,-0.563477,0.328369,-0.302734,-1.171875,1.721680,19682,19111,19800,18645,0.450000,-0.550000,0.300000,0.000000,1772899282317.976,0.392095,-0.563531,0.328184,0.000000,0.000000,0.000000,1.000000,position_only
2026-03-07T16:01:22.334242+00:00,1772899282334.242,0.392822,-0.563477,0.328613,-0.266113,-1.189453,1.737305,19858,18888,20049,18443,0.450000,-0.550000,0.300000,0.000000,1772899282326.531,0.392036,-0.563509,0.328217,0.000000,0.000000,0.000000,1.000000,position_only
2026-03-07T16:01:22.343395+00:00,1772899282343.395,0.392822,-0.563477,0.328613,-0.239868,-1.202148,1.762695,19579,19147,19694,18815,0.450000,-0.550000,0.300000,0.000000,1772899282335.065,0.391919,-0.563503,0.328257,0.000000,0.000000,0.000000,1.000000,position_only
2026-03-07T16:01:22.353316+00:00,1772899282353.316,0.392822,-0.563477,0.328613,-0.224854,-1.235352,1.767578,19565,19137,19754,18776,0.450000,-0.550000,0.300000,0.000000,1772899282352.129,0.391798,-0.563441,0.328336,0.000000,0.000000,0.000000,1.000000,position_only
2026-03-07T16:01:22.364493+00:00,1772899282364.493,0.392822,-0.563477,0.328613,-0.217407,-1.257812,1.776367,19602,19051,19796,18781,0.450000,-0.550000,0.300000,0.000000,1772899282360.711,0.391717,-0.563398,0.328377,0.000000,0.000000,0.000000,1.000000,position_only
2026-03-07T16:01:22.376371+00:00,1772899282376.371,0.392578,-0.563477,0.328857,-0.224976,-1.279297,1.786133,19583,19050,19865,18730,0.450000,-0.550000,0.300000,0.000000,1772899282369.264,0.391673,-0.563356,0.328407,0.000000,0.000000,0.000000,1.000000,position_only
2026-03-07T16:01:22.383367+00:00,1772899282383.367,0.392578,-0.563477,0.328857,-0.243286,-1.287109,1.798828,19592,19025,19961,18652,0.450000,-0.550000,0.300000,0.000000,1772899282377.776,0.391636,-0.563299,0.328428,0.000000,0.000000,0.000000,1.000000,position_only
2026-03-07T16:01:22.393943+00:00,1772899282393.942,0.392578,-0.563477,0.328857,-0.243286,-1.287109,1.798828,19505,19041,19935,18749,0.450000,-0.550000,0.300000,0.000000,1772899282386.355,0.391555,-0.563262,0.328448,0.000000,0.000000,0.000000,1.000000,position_only
2026-03-07T16:01:22.403642+00:00,1772899282403.642,0.392578,-0.562988,0.328857,-0.268311,-1.269531,1.816406,19618,18989,20069,18566,0.450000,-0.550000,0.300000,0.000000,1772899282403.468,0.391482,-0.563130,0.328496,0.000000,0.000000,0.000000,1.000000,position_only
2026-03-07T16:01:22.413800+00:00,1772899282413.799,0.392578,-0.562988,0.328857,-0.327637,-1.195312,1.858398,19454,19112,19910,18777,0.450000,-0.550000,0.300000,0.000000,1772899282412.119,0.391472,-0.563078,0.328491,0.000000,0.000000,0.000000,1.000000,position_only
2026-03-07T16:01:22.424310+00:00,1772899282424.309,0.392578,-0.562988,0.328857,-0.327637,-1.195312,1.858398,19537,19081,20026,18612,0.450000,-0.550000,0.300000,0.000000,1772899282420.650,0.391456,-0.563024,0.328509,0.000000,0.000000,0.000000,1.000000,position_only
2026-03-07T16:01:22.435653+00:00,1772899282435.652,0.392578,-0.562988,0.328857,-0.354004,-1.159180,1.870117,19564,19075,20039,18580,0.450000,-0.550000,0.300000,0.000000,1772899282429.153,0.391454,-0.562954,0.328500,0.000000,0.000000,0.000000,1.000000,position_only
2026-03-07T16:01:22.443202+00:00,1772899282443.202,0.392578,-0.562988,0.328857,-0.360840,-1.103516,1.891602,19481,19146,19934,18711,0.450000,-0.550000,0.300000,0.000000,1772899282437.644,0.391430,-0.562910,0.328500,0.000000,0.000000,0.000000,1.000000,position_only
2026-03-07T16:01:22.455246+00:00,1772899282455.245,0.392578,-0.562988,0.328857,-0.368164,-1.055664,1.907227,19486,19203,19939,18649,0.450000,-0.550000,0.300000,0.000000,1772899282454.674,0.391451,-0.562781,0.328495,0.000000,0.000000,0.000000,1.000000,position_only
2026-03-07T16:01:22.464488+00:00,1772899282464.487,0.392822,-0.562500,0.328857,-0.369873,-1.010742,1.914062,19526,19192,19926,18624,0.450000,-0.550000,0.300000,0.000000,1772899282463.173,0.391471,-0.562704,0.328486,0.000000,0.000000,0.000000,1.000000,position_only
2026-03-07T16:01:22.472769+00:00,1772899282472.768,0.392822,-0.562500,0.328857,-0.350342,-0.956055,1.924805,19541,19207,19820,18703,0.450000,-0.550000,0.300000,0.000000,1772899282471.833,0.391527,-0.562644,0.328479,0.000000,0.000000,0.000000,1.000000,position_only
2026-03-07T16:01:22.483389+00:00,1772899282483.388,0.393066,-0.562500,0.328857,-0.332031,-0.926270,1.933594,19603,19147,19933,18607,0.450000,-0.550000,0.300000,0.000000,1772899282480.421,0.391578,-0.562574,0.328457,0.000000,0.000000,0.000000,1.000000,position_only
2026-03-07T16:01:22.495460+00:00,1772899282495.459,0.393066,-0.562500,0.328857,-0.309082,-0.903809,1.944336,19571,19205,19812,18714,0.450000,-0.550000,0.300000,0.000000,1772899282488.956,0.391623,-0.562515,0.328444,0.000000,0.000000,0.000000,1.000000,position_only
2026-03-07T16:01:22.503796+00:00,1772899282503.795,0.393311,-0.562012,0.328857,-0.276123,-0.889648,1.954102,19524,19243,19773,18756,0.450000,-0.550000,0.300000,0.000000,1772899282497.531,0.391719,-0.562422,0.328453,0.000000,0.000000,0.000000,1.000000,position_only
2026-03-07T16:01:22.513672+00:00,1772899282513.671,0.393311,-0.562012,0.328857,-0.249268,-0.882812,1.955078,19618,19134,19823,18726,0.450000,-0.550000,0.300000,0.000000,1772899282506.119,0.391778,-0.562327,0.328432,0.000000,0.000000,0.000000,1.000000,position_only
2026-03-07T16:01:22.523768+00:00,1772899282523.767,0.393311,-0.562012,0.328857,-0.228882,-0.895996,1.961914,19693,19083,19884,18644,0.450000,-0.550000,0.300000,0.000000,1772899282523.218,0.392074,-0.562012,0.328388,0.000000,0.000000,0.000000,1.000000,position_only
2026-03-07T16:01:22.535028+00:00,1772899282535.027,0.393555,-0.562012,0.328857,-0.204102,-0.906738,1.973633,19582,19156,19776,18790,0.450000,-0.550000,0.300000,0.000000,1772899282531.708,0.392074,-0.562012,0.328388,0.000000,0.000000,0.000000,1.000000,position_only
2026-03-07T16:01:22.544230+00:00,1772899282544.229,0.393799,-0.561523,0.328857,-0.190063,-0.922363,1.978516,19563,19134,19799,18813,0.450000,-0.550000,0.300000,0.000000,1772899282540.233,0.392232,-0.561809,0.328366,0.000000,0.000000,0.000000,1.000000,position_only
2026-03-07T16:01:22.554987+00:00,1772899282554.986,0.393799,-0.561523,0.328857,-0.189331,-0.941406,1.982422,19678,19043,19942,18670,0.450000,-0.550000,0.300000,0.000000,1772899282548.766,0.392324,-0.561691,0.328325,0.000000,0.000000,0.000000,1.000000,position_only
2026-03-07T16:01:22.562799+00:00,1772899282562.798,0.394043,-0.561523,0.328613,-0.183594,-0.948242,1.995117,19583,19117,19896,18751,0.450000,-0.550000,0.300000,0.000000,1772899282557.305,0.392490,-0.561541,0.328318,0.000000,0.000000,0.000000,1.000000,position_only
2026-03-07T16:01:22.574282+00:00,1772899282574.281,0.394287,-0.561035,0.328613,-0.190918,-0.940430,2.005859,19565,19151,19993,18661,0.450000,-0.550000,0.300000,0.000000,1772899282565.826,0.392573,-0.561420,0.328283,0.000000,0.000000,0.000000,1.000000,position_only
2026-03-07T16:01:22.584401+00:00,1772899282584.401,0.394287,-0.561035,0.328613,-0.196411,-0.905273,2.019531,19503,19182,19937,18762,0.450000,-0.550000,0.300000,0.000000,1772899282582.994,0.392713,-0.561266,0.328273,0.000000,0.000000,0.000000,1.000000,position_only
2026-03-07T16:01:22.593824+00:00,1772899282593.823,0.394531,-0.561035,0.328613,-0.217285,-0.876953,2.025391,19477,19197,19978,18733,0.450000,-0.550000,0.300000,0.000000,1772899282591.531,0.392929,-0.561007,0.328176,0.000000,0.000000,0.000000,1.000000,position_only
2026-03-07T16:01:22.603671+00:00,1772899282603.671,0.394775,-0.560547,0.328613,-0.229858,-0.834961,2.037109,19579,19100,20037,18674,0.450000,-0.550000,0.300000,0.000000,1772899282600.034,0.393041,-0.560891,0.328146,0.000000,0.000000,0.000000,1.000000,position_only
2026-03-07T16:01:22.615342+00:00,1772899282615.341,0.394775,-0.560547,0.328369,-0.229858,-0.834961,2.037109,19514,19192,19934,18754,0.450000,-0.550000,0.300000,0.000000,1772899282608.597,0.393183,-0.560734,0.328087,0.000000,0.000000,0.000000,1.000000,position_only
2026-03-07T16:01:22.624263+00:00,1772899282624.263,0.395020,-0.560547,0.328369,-0.257080,-0.767090,2.056641,19519,19136,19976,18757,0.450000,-0.550000,0.300000,0.000000,1772899282617.328,0.393305,-0.560607,0.328048,0.000000,0.000000,0.000000,1.000000,position_only
2026-03-07T16:01:22.633252+00:00,1772899282633.252,0.395020,-0.560547,0.328369,-0.257080,-0.767090,2.056641,19587,19121,20074,18608,0.450000,-0.550000,0.300000,0.000000,1772899282625.824,0.393432,-0.560484,0.328021,0.000000,0.000000,0.000000,1.000000,position_only
2026-03-07T16:01:22.643793+00:00,1772899282643.792,0.395508,-0.560059,0.328369,-0.273193,-0.685059,2.078125,19468,19263,19883,18798,0.450000,-0.550000,0.300000,0.000000,1772899282642.950,0.393670,-0.560172,0.327975,0.000000,0.000000,0.000000,1.000000,position_only
2026-03-07T16:01:22.654455+00:00,1772899282654.455,0.395752,-0.560059,0.328125,-0.260986,-0.654297,2.082031,19574,19261,19894,18680,0.450000,-0.550000,0.300000,0.000000,1772899282651.457,0.393834,-0.560046,0.327935,0.000000,0.000000,0.000000,1.000000,position_only
2026-03-07T16:01:22.663444+00:00,1772899282663.444,0.395752,-0.560059,0.328125,-0.260986,-0.654297,2.082031,19665,19134,19927,18686,0.450000,-0.550000,0.300000,0.000000,1772899282659.948,0.393992,-0.559873,0.327900,0.000000,0.000000,0.000000,1.000000,position_only
2026-03-07T16:01:22.674265+00:00,1772899282674.264,0.395752,-0.559570,0.328125,-0.232788,-0.649902,2.089844,19625,19247,19823,18719,0.450000,-0.550000,0.300000,0.000000,1772899282668.476,0.394158,-0.559727,0.327859,0.000000,0.000000,0.000000,1.000000,position_only
2026-03-07T16:01:22.684816+00:00,1772899282684.815,0.395996,-0.559570,0.328125,-0.206787,-0.656738,2.097656,19579,19284,19786,18778,0.450000,-0.550000,0.300000,0.000000,1772899282676.949,0.394300,-0.559589,0.327835,0.000000,0.000000,0.000000,1.000000,position_only
2026-03-07T16:01:22.695372+00:00,1772899282695.372,0.396240,-0.559082,0.327881,-0.164551,-0.666016,2.097656,19720,19174,19893,18648,0.450000,-0.550000,0.300000,0.000000,1772899282694.108,0.394612,-0.559296,0.327702,0.000000,0.000000,0.000000,1.000000,position_only
2026-03-07T16:01:22.703780+00:00,1772899282703.780,0.396484,-0.559082,0.327881,-0.131470,-0.682617,2.095703,19818,19092,20005,18528,0.450000,-0.550000,0.300000,0.000000,1772899282702.707,0.394796,-0.559112,0.327652,0.000000,0.000000,0.000000,1.000000,position_only
2026-03-07T16:01:22.714232+00:00,1772899282714.232,0.396729,-0.559082,0.327881,-0.082764,-0.687500,2.109375,19676,19218,19893,18677,0.450000,-0.550000,0.300000,0.000000,1772899282711.272,0.394982,-0.558974,0.327568,0.000000,0.000000,0.000000,1.000000,position_only
2026-03-07T16:01:22.724963+00:00,1772899282724.962,0.396973,-0.558594,0.327881,-0.046875,-0.686523,2.119141,19653,19217,19901,18712,0.450000,-0.550000,0.300000,0.000000,1772899282719.772,0.395194,-0.558837,0.327492,0.000000,0.000000,0.000000,1.000000,position_only
2026-03-07T16:01:22.736421+00:00,1772899282736.421,0.397217,-0.558594,0.327637,-0.028107,-0.684082,2.125000,19637,19205,19916,18743,0.450000,-0.550000,0.300000,0.000000,1772899282728.529,0.395311,-0.558681,0.327458,0.000000,0.000000,0.000000,1.000000,position_only
2026-03-07T16:01:22.743995+00:00,1772899282743.995,0.397461,-0.558105,0.327637,-0.015915,-0.681641,2.136719,19647,19206,19983,18681,0.450000,-0.550000,0.300000,0.000000,1772899282737.029,0.395481,-0.558557,0.327384,0.000000,0.000000,0.000000,1.000000,position_only
2026-03-07T16:01:22.755293+00:00,1772899282755.293,0.397705,-0.558105,0.327393,-0.008308,-0.677734,2.142578,19755,19079,20101,18588,0.450000,-0.550000,0.300000,0.000000,1772899282754.116,0.395809,-0.558196,0.327282,0.000000,0.000000,0.000000,1.000000,position_only
2026-03-07T16:01:22.765267+00:00,1772899282765.267,0.397949,-0.558105,0.327393,-0.011078,-0.672363,2.164062,19566,19220,19918,18828,0.450000,-0.550000,0.300000,0.000000,1772899282762.656,0.396032,-0.558034,0.327203,0.000000,0.000000,0.000000,1.000000,position_only
2026-03-07T16:01:22.775093+00:00,1772899282775.092,0.398193,-0.557617,0.327148,-0.027328,-0.672363,2.169922,19571,19224,20012,18729,0.450000,-0.550000,0.300000,0.000000,1772899282771.291,0.396263,-0.557865,0.327128,0.000000,0.000000,0.000000,1.000000,position_only
2026-03-07T16:01:22.783422+00:00,1772899282783.421,0.398682,-0.557617,0.327148,-0.041138,-0.646973,2.177734,19700,19142,20095,18601,0.450000,-0.550000,0.300000,0.000000,1772899282779.818,0.396413,-0.557744,0.327066,0.000000,0.000000,0.000000,1.000000,position_only
2026-03-07T16:01:22.793372+00:00,1772899282793.371,0.398682,-0.557129,0.327148,-0.040985,-0.612793,2.193359,19619,19221,20086,18610,0.450000,-0.550000,0.300000,0.000000,1772899282788.340,0.396546,-0.557588,0.327014,0.000000,0.000000,0.000000,1.000000,position_only
2026-03-07T16:01:22.805398+00:00,1772899282805.398,0.398926,-0.557129,0.326904,-0.045380,-0.561523,2.205078,19406,19440,19835,18850,0.450000,-0.550000,0.300000,0.000000,1772899282796.817,0.396741,-0.557421,0.326957,0.000000,0.000000,0.000000,1.000000,position_only
2026-03-07T16:01:22.814482+00:00,1772899282814.482,0.399170,-0.557129,0.326904,-0.041809,-0.520508,2.203125,19556,19289,19990,18701,0.450000,-0.550000,0.300000,0.000000,1772899282814.126,0.397123,-0.557080,0.326835,0.000000,0.000000,0.000000,1.000000,position_only
2026-03-07T16:01:22.824480+00:00,1772899282824.479,0.399658,-0.556641,0.326904,-0.032654,-0.483887,2.210938,19668,19236,20118,18509,0.450000,-0.550000,0.300000,0.000000,1772899282822.633,0.397307,-0.556905,0.326793,0.000000,0.000000,0.000000,1.000000,position_only
2026-03-07T16:01:22.834949+00:00,1772899282834.948,0.399902,-0.556641,0.326660,-0.017776,-0.442627,2.224609,19581,19268,19969,18703,0.450000,-0.550000,0.300000,0.000000,1772899282831.179,0.397431,-0.556774,0.326757,0.000000,0.000000,0.000000,1.000000,position_only
2026-03-07T16:01:22.844725+00:00,1772899282844.724,0.399658,-0.556641,0.326660,-0.017776,-0.442627,2.224609,19641,19272,19951,18657,0.450000,-0.550000,0.300000,0.000000,1772899282839.804,0.397759,-0.556484,0.326656,0.000000,0.000000,0.000000,1.000000,position_only
2026-03-07T16:01:22.853963+00:00,1772899282853.963,0.399902,-0.556152,0.326660,-0.000728,-0.422852,2.232422,19602,19282,19898,18753,0.450000,-0.550000,0.300000,0.000000,1772899282848.330,0.397917,-0.556339,0.326589,0.000000,0.000000,0.000000,1.000000,position_only
2026-03-07T16:01:22.864226+00:00,1772899282864.225,0.400146,-0.556152,0.326660,0.014458,-0.417969,2.240234,19595,19317,19861,18762,0.450000,-0.550000,0.300000,0.000000,1772899282857.010,0.398173,-0.556153,0.326532,0.000000,0.000000,0.000000,1.000000,position_only
2026-03-07T16:01:22.875426+00:00,1772899282875.426,0.400879,-0.555664,0.326416,0.039337,-0.460938,2.240234,19752,19157,19922,18703,0.450000,-0.550000,0.300000,0.000000,1772899282874.320,0.398552,-0.555904,0.326386,0.000000,0.000000,0.000000,1.000000,position_only
2026-03-07T16:01:22.885498+00:00,1772899282885.497,0.401123,-0.555664,0.326416,0.061188,-0.506348,2.244141,19803,19165,19899,18678,0.450000,-0.550000,0.300000,0.000000,1772899282882.885,0.398701,-0.555736,0.326321,0.000000,0.000000,0.000000,1.000000,position_only
2026-03-07T16:01:22.896209+00:00,1772899282896.208,0.400879,-0.555664,0.326416,0.061188,-0.506348,2.244141,19720,19245,19783,18797,0.450000,-0.550000,0.300000,0.000000,1772899282891.403,0.398931,-0.555575,0.326264,0.000000,0.000000,0.000000,1.000000,position_only
2026-03-07T16:01:22.905371+00:00,1772899282905.371,0.401123,-0.555176,0.326172,0.094482,-0.561035,2.251953,19692,19241,19824,18791,0.450000,-0.550000,0.300000,0.000000,1772899282899.942,0.399092,-0.555389,0.326239,0.000000,0.000000,0.000000,1.000000,position_only
2026-03-07T16:01:22.916012+00:00,1772899282916.012,0.401367,-0.555176,0.326172,0.115601,-0.614258,2.248047,19751,19190,19819,18786,0.450000,-0.550000,0.300000,0.000000,1772899282908.586,0.399381,-0.555247,0.326133,0.000000,0.000000,0.000000,1.000000,position_only
2026-03-07T16:01:22.925230+00:00,1772899282925.229,0.401611,-0.554688,0.326172,0.130737,-0.670898,2.246094,19651,19258,19776,18863,0.450000,-0.550000,0.300000,0.000000,1772899282917.118,0.399651,-0.555110,0.326069,0.000000,0.000000,0.000000,1.000000,position_only
2026-03-07T16:01:22.934676+00:00,1772899282934.676,0.401855,-0.554688,0.326172,0.135864,-0.723145,2.244141,19632,19208,19818,18901,0.450000,-0.550000,0.300000,0.000000,1772899282934.248,0.399970,-0.554851,0.325968,0.000000,0.000000,0.000000,1.000000,position_only
2026-03-07T16:01:22.945378+00:00,1772899282945.378,0.402100,-0.554688,0.325928,0.119568,-0.780762,2.238281,19750,19101,19912,18797,0.450000,-0.550000,0.300000,0.000000,1772899282942.707,0.400178,-0.554666,0.325924,0.000000,0.000000,0.000000,1.000000,position_only
2026-03-07T16:01:22.955287+00:00,1772899282955.286,0.402588,-0.554199,0.325928,0.098572,-0.834961,2.240234,19681,19112,19856,18917,0.450000,-0.550000,0.300000,0.000000,1772899282951.257,0.400443,-0.554494,0.325878,0.000000,0.000000,0.000000,1.000000,position_only
2026-03-07T16:01:22.966602+00:00,1772899282966.601,0.402832,-0.554199,0.325928,0.065613,-0.905273,2.246094,19594,19186,19819,18982,0.450000,-0.550000,0.300000,0.000000,1772899282959.762,0.400672,-0.554351,0.325822,0.000000,0.000000,0.000000,1.000000,position_only
2026-03-07T16:01:22.975133+00:00,1772899282975.132,0.403076,-0.554199,0.325684,0.021606,-0.967773,2.242188,19722,19071,20013,18775,0.450000,-0.550000,0.300000,0.000000,1772899282968.401,0.400903,-0.554215,0.325772,0.000000,0.000000,0.000000,1.000000,position_only
2026-03-07T16:01:22.984375+00:00,1772899282984.375,0.403320,-0.553711,0.325684,-0.012680,-1.001953,2.250000,19674,19121,19922,18859,0.450000,-0.550000,0.300000,0.000000,1772899282976.885,0.401116,-0.554084,0.325748,0.000000,0.000000,0.000000,1.000000,position_only
2026-03-07T16:01:22.995776+00:00,1772899282995.776,0.403564,-0.553711,0.325684,-0.051361,-1.051758,2.248047,19597,19170,19916,18892,0.450000,-0.550000,0.300000,0.000000,1772899282994.157,0.401661,-0.553737,0.325641,0.000000,0.000000,0.000000,1.000000,position_only
2026-03-07T16:01:23.004426+00:00,1772899283004.426,0.403809,-0.553711,0.325439,-0.103455,-1.083984,2.242188,19709,19078,20063,18732,0.450000,-0.550000,0.300000,0.000000,1772899283002.707,0.401893,-0.553567,0.325591,0.000000,0.000000,0.000000,1.000000,position_only
2026-03-07T16:01:23.014229+00:00,1772899283014.229,0.404297,-0.553223,0.325439,-0.139282,-1.096680,2.250000,19746,19016,20101,18714,0.450000,-0.550000,0.300000,0.000000,1772899283011.233,0.402136,-0.553423,0.325540,0.000000,0.000000,0.000000,1.000000,position_only
2026-03-07T16:01:23.026543+00:00,1772899283026.543,0.404541,-0.553223,0.325439,-0.184204,-1.105469,2.267578,19608,19127,20058,18778,0.450000,-0.550000,0.300000,0.000000,1772899283019.708,0.402406,-0.553273,0.325504,0.000000,0.000000,0.000000,1.000000,position_only
2026-03-07T16:01:23.035652+00:00,1772899283035.651,0.404785,-0.552734,0.325439,-0.232300,-1.090820,2.277344,19587,19143,20150,18686,0.450000,-0.550000,0.300000,0.000000,1772899283028.446,0.402671,-0.553097,0.325474,0.000000,0.000000,0.000000,1.000000,position_only
2026-03-07T16:01:23.045514+00:00,1772899283045.514,0.405273,-0.552734,0.325439,-0.274902,-1.058594,2.287109,19582,19182,20159,18640,0.450000,-0.550000,0.300000,0.000000,1772899283037.020,0.402995,-0.552877,0.325417,0.000000,0.000000,0.000000,1.000000,position_only
2026-03-07T16:01:23.054556+00:00,1772899283054.556,0.405518,-0.552734,0.325195,-0.306885,-1.007812,2.298828,19440,19288,20008,18813,0.450000,-0.550000,0.300000,0.000000,1772899283054.065,0.403520,-0.552542,0.325343,0.000000,0.000000,0.000000,1.000000,position_only
2026-03-07T16:01:23.063681+00:00,1772899283063.680,0.406006,-0.552246,0.325195,-0.345215,-0.962402,2.300781,19445,19314,19931,18849,0.450000,-0.550000,0.300000,0.000000,1772899283062.588,0.403812,-0.552380,0.325282,0.000000,0.000000,0.000000,1.000000,position_only
2026-03-07T16:01:23.076519+00:00,1772899283076.518,0.406250,-0.552246,0.325195,-0.367432,-0.933594,2.300781,19681,19161,20188,18509,0.450000,-0.550000,0.300000,0.000000,1772899283071.135,0.404143,-0.552181,0.325233,0.000000,0.000000,0.000000,1.000000,position_only
2026-03-07T16:01:23.085431+00:00,1772899283085.431,0.406494,-0.551758,0.325195,-0.367188,-0.881836,2.316406,19611,19183,20088,18651,0.450000,-0.550000,0.300000,0.000000,1772899283079.772,0.404393,-0.552018,0.325216,0.000000,0.000000,0.000000,1.000000,position_only
2026-03-07T16:01:23.094493+00:00,1772899283094.492,0.407227,-0.551758,0.325195,-0.373047,-0.846191,2.328125,19601,19261,20034,18623,0.450000,-0.550000,0.300000,0.000000,1772899283088.286,0.404663,-0.551845,0.325148,0.000000,0.000000,0.000000,1.000000,position_only
2026-03-07T16:01:23.105744+00:00,1772899283105.744,0.407471,-0.551270,0.325195,-0.362793,-0.800293,2.335938,19569,19306,20025,18608,0.450000,-0.550000,0.300000,0.000000,1772899283105.531,0.405375,-0.551433,0.325048,0.000000,0.000000,0.000000,1.000000,position_only
2026-03-07T16:01:23.116123+00:00,1772899283116.123,0.407715,-0.551270,0.325195,-0.348633,-0.755859,2.341797,19570,19345,19926,18669,0.450000,-0.550000,0.300000,0.000000,1772899283114.176,0.405749,-0.551243,0.324991,0.000000,0.000000,0.000000,1.000000,position_only
