time_wall,time_ms,state_x,state_y,state_z,roll,pitch,yaw,u1_16,u2_16,u3_16,u4_16,setpoint_x,setpoint_y,setpoint_z,setpoint_yaw_deg,mocap_time_ms,mocap_x,mocap_y,mocap_z,mocap_qx,mocap_qy,mocap_qz,mocap_qw,mocap_mode
2026-03-07T01:09:21.165111+00:00,1772845761165.109,0.434326,-0.559082,0.308105,-0.239014,-0.377930,0.119324,0,0,0,0,0.450000,-0.550000,0.300000,0.000000,1772845761162.521,0.431824,-0.560972,0.307922,0.000000,0.000000,0.000000,1.000000,position_only
2026-03-07T01:09:21.175082+00:00,1772845761175.081,0.434326,-0.559082,0.308350,-0.231079,-0.387939,0.123230,0,0,0,0,0.450000,-0.550000,0.300000,0.000000,1772845761171.387,0.431732,-0.561000,0.307922,0.000000,0.000000,0.000000,1.000000,position_only
2026-03-07T01:09:21.185679+00:00,1772845761185.678,0.434326,-0.559082,0.308350,-0.231689,-0.394775,0.121094,0,0,0,0,0.450000,-0.550000,0.300000,0.000000,1772845761179.905,0.431654,-0.561041,0.307919,0.000000,0.000000,0.000000,1.000000,position_only
2026-03-07T01:09:21.195354+00:00,1772845761195.354,0.434082,-0.559082,0.308105,-0.233765,-0.400635,0.123413,0,0,0,0,0.450000,-0.550000,0.300000,0.000000,1772845761188.406,0.431576,-0.561041,0.307928,0.000000,0.000000,0.000000,1.000000,position_only
2026-03-07T01:09:21.204370+00:00,1772845761204.369,0.434082,-0.559082,0.308105,-0.248901,-0.424316,0.121643,0,0,0,0,0.450000,-0.550000,0.300000,0.000000,1772845761196.945,0.431466,-0.561088,0.307919,0.000000,0.000000,0.000000,1.000000,position_only
2026-03-07T01:09:21.214948+00:00,1772845761214.948,0.433838,-0.559082,0.308105,-0.255371,-0.426025,0.126343,0,0,0,0,0.450000,-0.550000,0.300000,0.000000,1772845761214.427,0.431252,-0.561127,0.307942,0.000000,0.000000,0.000000,1.000000,position_only
2026-03-07T01:09:21.225124+00:00,1772845761225.122,0.433838,-0.559082,0.308105,-0.249512,-0.414062,0.134399,0,0,0,0,0.450000,-0.550000,0.300000,0.000000,1772845761223.008,0.431149,-0.561167,0.307937,0.000000,0.000000,0.000000,1.000000,position_only
2026-03-07T01:09:21.234919+00:00,1772845761234.917,0.433838,-0.559082,0.308105,-0.246704,-0.411621,0.134521,0,0,0,0,0.450000,-0.550000,0.300000,0.000000,1772845761232.027,0.431049,-0.561195,0.307942,0.000000,0.000000,0.000000,1.000000,position_only
2026-03-07T01:09:21.245402+00:00,1772845761245.401,0.433594,-0.559082,0.308105,-0.250977,-0.422852,0.126953,0,0,0,0,0.450000,-0.550000,0.300000,0.000000,1772845761240.677,0.431011,-0.561214,0.307939,0.000000,0.000000,0.000000,1.000000,position_only
2026-03-07T01:09:21.255091+00:00,1772845761255.090,0.433594,-0.559082,0.308105,-0.255127,-0.435791,0.123535,0,0,0,0,0.450000,-0.550000,0.300000,0.000000,1772845761249.706,0.430790,-0.561264,0.307958,0.000000,0.000000,0.000000,1.000000,position_only
2026-03-07T01:09:21.265014+00:00,1772845761265.013,0.433350,-0.559570,0.308105,-0.263428,-0.462402,0.119690,0,0,0,0,0.450000,-0.550000,0.300000,0.000000,1772845761258.354,0.430704,-0.561291,0.307968,0.000000,0.000000,0.000000,1.000000,position_only
2026-03-07T01:09:21.274926+00:00,1772845761274.924,0.433350,-0.559570,0.308105,-0.270264,-0.477539,0.120789,0,0,0,0,0.450000,-0.550000,0.300000,0.000000,1772845761266.957,0.430603,-0.561334,0.307946,0.000000,0.000000,0.000000,1.000000,position_only
2026-03-07T01:09:21.284798+00:00,1772845761284.797,0.433105,-0.559570,0.308105,-0.273438,-0.491943,0.121521,0,0,0,0,0.450000,-0.550000,0.300000,0.000000,1772845761284.147,0.430460,-0.561430,0.307895,0.000000,0.000000,0.000000,1.000000,position_only
2026-03-07T01:09:21.295414+00:00,1772845761295.413,0.433105,-0.559570,0.308105,-0.288330,-0.518066,0.123535,0,0,0,0,0.450000,-0.550000,0.300000,0.000000,1772845761292.658,0.430370,-0.561481,0.307889,0.000000,0.000000,0.000000,1.000000,position_only
2026-03-07T01:09:21.305117+00:00,1772845761305.115,0.433105,-0.559570,0.308105,-0.294434,-0.535645,0.128296,0,0,0,0,0.450000,-0.550000,0.300000,0.000000,1772845761301.231,0.430260,-0.561529,0.307865,0.000000,0.000000,0.000000,1.000000,position_only
2026-03-07T01:09:21.314810+00:00,1772845761314.809,0.432861,-0.559570,0.308105,-0.302246,-0.562500,0.116089,0,0,0,0,0.450000,-0.550000,0.300000,0.000000,1772845761309.901,0.430187,-0.561555,0.307878,0.000000,0.000000,0.000000,1.000000,position_only
2026-03-07T01:09:21.325188+00:00,1772845761325.187,0.432617,-0.559570,0.308105,-0.302979,-0.570801,0.106079,0,0,0,0,0.450000,-0.550000,0.300000,0.000000,1772845761318.537,0.430068,-0.561614,0.307859,0.000000,0.000000,0.000000,1.000000,position_only
2026-03-07T01:09:21.335665+00:00,1772845761335.663,0.432617,-0.559570,0.308105,-0.294189,-0.580078,0.098022,0,0,0,0,0.450000,-0.550000,0.300000,0.000000,1772845761327.154,0.429997,-0.561661,0.307843,0.000000,0.000000,0.000000,1.000000,position_only
2026-03-07T01:09:21.345382+00:00,1772845761345.381,0.432617,-0.559570,0.308105,-0.292969,-0.606934,0.099426,0,0,0,0,0.450000,-0.550000,0.300000,0.000000,1772845761344.531,0.429875,-0.561735,0.307844,0.000000,0.000000,0.000000,1.000000,position_only
2026-03-07T01:09:21.355543+00:00,1772845761355.541,0.432373,-0.560059,0.308105,-0.282959,-0.625000,0.100830,0,0,0,0,0.450000,-0.550000,0.300000,0.000000,1772845761353.136,0.429782,-0.561773,0.307836,0.000000,0.000000,0.000000,1.000000,position_only
2026-03-07T01:09:21.365197+00:00,1772845761365.196,0.432373,-0.560059,0.308105,-0.288086,-0.654785,0.099792,0,0,0,0,0.450000,-0.550000,0.300000,0.000000,1772845761361.785,0.429685,-0.561812,0.307843,0.000000,0.000000,0.000000,1.000000,position_only
2026-03-07T01:09:21.374973+00:00,1772845761374.972,0.432373,-0.560059,0.308105,-0.299805,-0.671387,0.104858,0,0,0,0,0.450000,-0.550000,0.300000,0.000000,1772845761370.379,0.429600,-0.561868,0.307843,0.000000,0.000000,0.000000,1.000000,position_only
2026-03-07T01:09:21.385494+00:00,1772845761385.494,0.432129,-0.560059,0.308105,-0.305908,-0.681152,0.112061,0,0,0,0,0.450000,-0.550000,0.300000,0.000000,1772845761379.022,0.429524,-0.561903,0.307829,0.000000,0.000000,0.000000,1.000000,position_only
2026-03-07T01:09:21.395194+00:00,1772845761395.193,0.432129,-0.560059,0.308105,-0.316406,-0.665039,0.123047,0,0,0,0,0.450000,-0.550000,0.300000,0.000000,1772845761387.536,0.429453,-0.561936,0.307813,0.000000,0.000000,0.000000,1.000000,position_only
2026-03-07T01:09:21.404987+00:00,1772845761404.986,0.432129,-0.560059,0.308105,-0.317627,-0.648438,0.127686,0,0,0,0,0.450000,-0.550000,0.300000,0.000000,1772845761404.750,0.429264,-0.561993,0.307832,0.000000,0.000000,0.000000,1.000000,position_only
2026-03-07T01:09:21.414946+00:00,1772845761414.946,0.431885,-0.560059,0.308105,-0.328613,-0.640625,0.129028,0,0,0,0,0.450000,-0.550000,0.300000,0.000000,1772845761413.304,0.429199,-0.562043,0.307822,0.000000,0.000000,0.000000,1.000000,position_only
2026-03-07T01:09:21.425747+00:00,1772845761425.746,0.431885,-0.560059,0.308105,-0.330322,-0.619141,0.132446,0,0,0,0,0.450000,-0.550000,0.300000,0.000000,1772845761421.898,0.429106,-0.562122,0.307806,0.000000,0.000000,0.000000,1.000000,position_only
2026-03-07T01:09:21.434723+00:00,1772845761434.722,0.431885,-0.560059,0.308105,-0.328613,-0.599609,0.143921,0,0,0,0,0.450000,-0.550000,0.300000,0.000000,1772845761430.450,0.429028,-0.562172,0.307786,0.000000,0.000000,0.000000,1.000000,position_only
2026-03-07T01:09:21.444784+00:00,1772845761444.782,0.431641,-0.560547,0.307861,-0.321045,-0.591309,0.148682,0,0,0,0,0.450000,-0.550000,0.300000,0.000000,1772845761439.124,0.428933,-0.562204,0.307764,0.000000,0.000000,0.000000,1.000000,position_only
2026-03-07T01:09:21.455684+00:00,1772845761455.682,0.431641,-0.560547,0.307861,-0.325439,-0.595215,0.157715,0,0,0,0,0.450000,-0.550000,0.300000,0.000000,1772845761447.775,0.428865,-0.562228,0.307748,0.000000,0.000000,0.000000,1.000000,position_only
2026-03-07T01:09:21.465638+00:00,1772845761465.636,0.431641,-0.560547,0.307861,-0.323486,-0.596191,0.167358,0,0,0,0,0.450000,-0.550000,0.300000,0.000000,1772845761465.070,0.428728,-0.562291,0.307703,0.000000,0.000000,0.000000,1.000000,position_only
2026-03-07T01:09:21.474824+00:00,1772845761474.823,0.431641,-0.560547,0.307861,-0.330322,-0.611816,0.173096,0,0,0,0,0.450000,-0.550000,0.300000,0.000000,1772845761473.743,0.428659,-0.562321,0.307705,0.000000,0.000000,0.000000,1.000000,position_only
2026-03-07T01:09:21.485495+00:00,1772845761485.494,0.431396,-0.560547,0.307861,-0.338379,-0.619629,0.172241,0,0,0,0,0.450000,-0.550000,0.300000,0.000000,1772845761482.432,0.428612,-0.562352,0.307671,0.000000,0.000000,0.000000,1.000000,position_only
2026-03-07T01:09:21.495470+00:00,1772845761495.470,0.431396,-0.560547,0.307861,-0.349121,-0.599609,0.184448,0,0,0,0,0.450000,-0.550000,0.300000,0.000000,1772845761491.072,0.428530,-0.562399,0.307637,0.000000,0.000000,0.000000,1.000000,position_only
2026-03-07T01:09:21.505380+00:00,1772845761505.378,0.431152,-0.560547,0.307617,-0.371094,-0.598145,0.197876,0,0,0,0,0.450000,-0.550000,0.300000,0.000000,1772845761499.813,0.428433,-0.562416,0.307592,0.000000,0.000000,0.000000,1.000000,position_only
2026-03-07T01:09:21.515913+00:00,1772845761515.913,0.431152,-0.560547,0.307617,-0.385010,-0.604980,0.201172,0,0,0,0,0.450000,-0.550000,0.300000,0.000000,1772845761508.478,0.428362,-0.562448,0.307580,0.000000,0.000000,0.000000,1.000000,position_only
2026-03-07T01:09:21.525202+00:00,1772845761525.202,0.431152,-0.560547,0.307617,-0.387451,-0.595215,0.208618,0,0,0,0,0.450000,-0.550000,0.300000,0.000000,1772845761517.407,0.428299,-0.562482,0.307563,0.000000,0.000000,0.000000,1.000000,position_only
2026-03-07T01:09:21.535737+00:00,1772845761535.737,0.431152,-0.560547,0.307617,-0.379395,-0.576172,0.211304,0,0,0,0,0.450000,-0.550000,0.300000,0.000000,1772845761535.011,0.428169,-0.562545,0.307502,0.000000,0.000000,0.000000,1.000000,position_only
2026-03-07T01:09:21.546398+00:00,1772845761546.398,0.431152,-0.560547,0.307617,-0.369629,-0.557617,0.214600,0,0,0,0,0.450000,-0.550000,0.300000,0.000000,1772845761543.647,0.428114,-0.562548,0.307491,0.000000,0.000000,0.000000,1.000000,position_only
2026-03-07T01:09:21.556392+00:00,1772845761556.391,0.431152,-0.560547,0.307617,-0.365479,-0.557129,0.220703,0,0,0,0,0.450000,-0.550000,0.300000,0.000000,1772845761552.320,0.428073,-0.562551,0.307473,0.000000,0.000000,0.000000,1.000000,position_only
2026-03-07T01:09:21.565786+00:00,1772845761565.785,0.430908,-0.560547,0.307617,-0.361572,-0.544434,0.230835,0,0,0,0,0.450000,-0.550000,0.300000,0.000000,1772845761560.856,0.428014,-0.562586,0.307454,0.000000,0.000000,0.000000,1.000000,position_only
2026-03-07T01:09:21.575678+00:00,1772845761575.677,0.430908,-0.561035,0.307617,-0.360596,-0.557617,0.233032,0,0,0,0,0.450000,-0.550000,0.300000,0.000000,1772845761569.595,0.427947,-0.562603,0.307462,0.000000,0.000000,0.000000,1.000000,position_only
2026-03-07T01:09:21.586194+00:00,1772845761586.193,0.430664,-0.561035,0.307617,-0.358398,-0.566406,0.242554,0,0,0,0,0.450000,-0.550000,0.300000,0.000000,1772845761578.183,0.427913,-0.562639,0.307434,0.000000,0.000000,0.000000,1.000000,position_only
2026-03-07T01:09:21.596121+00:00,1772845761596.120,0.430664,-0.561035,0.307617,-0.356201,-0.577148,0.244263,0,0,0,0,0.450000,-0.550000,0.300000,0.000000,1772845761595.310,0.427760,-0.562659,0.307412,0.000000,0.000000,0.000000,1.000000,position_only
2026-03-07T01:09:21.606561+00:00,1772845761606.561,0.430664,-0.561035,0.307617,-0.358643,-0.595703,0.250732,0,0,0,0,0.450000,-0.550000,0.300000,0.000000,1772845761604.228,0.427703,-0.562722,0.307363,0.000000,0.000000,0.000000,1.000000,position_only
2026-03-07T01:09:21.616212+00:00,1772845761616.212,0.430664,-0.561035,0.307617,-0.360840,-0.602051,0.257080,0,0,0,0,0.450000,-0.550000,0.300000,0.000000,1772845761612.797,0.427648,-0.562754,0.307372,0.000000,0.000000,0.000000,1.000000,position_only
2026-03-07T01:09:21.625168+00:00,1772845761625.168,0.430664,-0.561035,0.307373,-0.355225,-0.609375,0.259766,0,0,0,0,0.450000,-0.550000,0.300000,0.000000,1772845761621.448,0.427643,-0.562738,0.307342,0.000000,0.000000,0.000000,1.000000,position_only
2026-03-07T01:09:21.635923+00:00,1772845761635.923,0.430420,-0.561035,0.307373,-0.359375,-0.625977,0.259521,0,0,0,0,0.450000,-0.550000,0.300000,0.000000,1772845761630.125,0.427593,-0.562761,0.307334,0.000000,0.000000,0.000000,1.000000,position_only
2026-03-07T01:09:21.646343+00:00,1772845761646.343,0.430420,-0.561035,0.307373,-0.360596,-0.653320,0.254395,0,0,0,0,0.450000,-0.550000,0.300000,0.000000,1772845761638.722,0.427516,-0.562774,0.307337,0.000000,0.000000,0.000000,1.000000,position_only
2026-03-07T01:09:21.655271+00:00,1772845761655.270,0.430420,-0.561035,0.307373,-0.362305,-0.668945,0.248413,0,0,0,0,0.450000,-0.550000,0.300000,0.000000,1772845761647.291,0.427501,-0.562772,0.307333,0.000000,0.000000,0.000000,1.000000,position_only
2026-03-07T01:09:21.665814+00:00,1772845761665.813,0.430420,-0.561035,0.307373,-0.369629,-0.680176,0.252686,0,0,0,0,0.450000,-0.550000,0.300000,0.000000,1772845761664.534,0.427410,-0.562820,0.307306,0.000000,0.000000,0.000000,1.000000,position_only
2026-03-07T01:09:21.676472+00:00,1772845761676.471,0.430420,-0.561035,0.307373,-0.378418,-0.698730,0.243164,0,0,0,0,0.450000,-0.550000,0.300000,0.000000,1772845761673.247,0.427391,-0.562825,0.307300,0.000000,0.000000,0.000000,1.000000,position_only
2026-03-07T01:09:21.687498+00:00,1772845761687.498,0.430420,-0.561035,0.307373,-0.385986,-0.722656,0.233643,0,0,0,0,0.450000,-0.550000,0.300000,0.000000,1772845761681.851,0.427356,-0.562832,0.307308,0.000000,0.000000,0.000000,1.000000,position_only
2026-03-07T01:09:21.696474+00:00,1772845761696.473,0.430176,-0.561035,0.307373,-0.393555,-0.744629,0.226807,0,0,0,0,0.450000,-0.550000,0.300000,0.000000,1772845761690.533,0.427307,-0.562851,0.307304,0.000000,0.000000,0.000000,1.000000,position_only
2026-03-07T01:09:21.705974+00:00,1772845761705.974,0.430176,-0.561035,0.307373,-0.389893,-0.748535,0.219482,0,0,0,0,0.450000,-0.550000,0.300000,0.000000,1772845761699.159,0.427260,-0.562863,0.307298,0.000000,0.000000,0.000000,1.000000,position_only
2026-03-07T01:09:21.716098+00:00,1772845761716.096,0.430176,-0.561035,0.307373,-0.385498,-0.746094,0.223022,0,0,0,0,0.450000,-0.550000,0.300000,0.000000,1772845761707.721,0.427209,-0.562887,0.307312,0.000000,0.000000,0.000000,1.000000,position_only
2026-03-07T01:09:21.725505+00:00,1772845761725.504,0.430176,-0.561035,0.307373,-0.375977,-0.734375,0.226318,0,0,0,0,0.450000,-0.550000,0.300000,0.000000,1772845761725.376,0.427151,-0.562888,0.307299,0.000000,0.000000,0.000000,1.000000,position_only
2026-03-07T01:09:21.736751+00:00,1772845761736.751,0.430176,-0.561035,0.307373,-0.370361,-0.726074,0.225098,0,0,0,0,0.450000,-0.550000,0.300000,0.000000,1772845761733.934,0.427137,-0.562871,0.307298,0.000000,0.000000,0.000000,1.000000,position_only
2026-03-07T01:09:21.747427+00:00,1772845761747.426,0.430176,-0.561035,0.307373,-0.369385,-0.724121,0.222778,0,0,0,0,0.450000,-0.550000,0.300000,0.000000,1772845761742.534,0.427137,-0.562871,0.307298,0.000000,0.000000,0.000000,1.000000,position_only
2026-03-07T01:09:21.756199+00:00,1772845761756.198,0.429932,-0.561035,0.307373,-0.367920,-0.714844,0.223633,0,0,0,0,0.450000,-0.550000,0.300000,0.000000,1772845761751.333,0.427089,-0.562886,0.307275,0.000000,0.000000,0.000000,1.000000,position_only
2026-03-07T01:09:21.765436+00:00,1772845761765.434,0.429932,-0.561035,0.307373,-0.364502,-0.704590,0.227051,0,0,0,0,0.450000,-0.550000,0.300000,0.000000,1772845761760.041,0.427051,-0.562872,0.307282,0.000000,0.000000,0.000000,1.000000,position_only
2026-03-07T01:09:21.775771+00:00,1772845761775.770,0.429932,-0.561035,0.307373,-0.377686,-0.704102,0.223999,0,0,0,0,0.450000,-0.550000,0.300000,0.000000,1772845761768.819,0.427046,-0.562875,0.307261,0.000000,0.000000,0.000000,1.000000,position_only
2026-03-07T01:09:21.785570+00:00,1772845761785.569,0.429932,-0.561035,0.307373,-0.387695,-0.687988,0.227417,0,0,0,0,0.450000,-0.550000,0.300000,0.000000,1772845761777.325,0.427028,-0.562860,0.307237,0.000000,0.000000,0.000000,1.000000,position_only
2026-03-07T01:09:21.796112+00:00,1772845761796.112,0.430176,-0.561035,0.307373,-0.381348,-0.668945,0.235352,0,0,0,0,0.450000,-0.550000,0.300000,0.000000,1772845761794.492,0.427012,-0.562854,0.307213,0.000000,0.000000,0.000000,1.000000,position_only
2026-03-07T01:09:21.806105+00:00,1772845761806.105,0.430176,-0.561035,0.307373,-0.370850,-0.646973,0.236694,0,0,0,0,0.450000,-0.550000,0.300000,0.000000,1772845761803.005,0.427000,-0.562858,0.307195,0.000000,0.000000,0.000000,1.000000,position_only
2026-03-07T01:09:21.816674+00:00,1772845761816.674,0.429932,-0.561035,0.307373,-0.366211,-0.631836,0.238159,0,0,0,0,0.450000,-0.550000,0.300000,0.000000,1772845761811.529,0.427002,-0.562864,0.307166,0.000000,0.000000,0.000000,1.000000,position_only
2026-03-07T01:09:21.825897+00:00,1772845761825.896,0.429932,-0.561035,0.307373,-0.370361,-0.628906,0.238403,0,0,0,0,0.450000,-0.550000,0.300000,0.000000,1772845761820.066,0.426983,-0.562868,0.307151,0.000000,0.000000,0.000000,1.000000,position_only
2026-03-07T01:09:21.837122+00:00,1772845761837.122,0.429932,-0.561035,0.307373,-0.356445,-0.603027,0.247803,0,0,0,0,0.450000,-0.550000,0.300000,0.000000,1772845761837.014,0.426959,-0.562843,0.307102,0.000000,0.000000,0.000000,1.000000,position_only
2026-03-07T01:09:21.846280+00:00,1772845761846.280,0.429932,-0.561035,0.307129,-0.344971,-0.577148,0.247314,0,0,0,0,0.450000,-0.550000,0.300000,0.000000,1772845761845.735,0.426950,-0.562843,0.307089,0.000000,0.000000,0.000000,1.000000,position_only
2026-03-07T01:09:21.855733+00:00,1772845761855.732,0.429932,-0.561035,0.307129,-0.336426,-0.557129,0.245850,0,0,0,0,0.450000,-0.550000,0.300000,0.000000,1772845761854.218,0.426963,-0.562819,0.307048,0.000000,0.000000,0.000000,1.000000,position_only
2026-03-07T01:09:21.866834+00:00,1772845761866.834,0.430176,-0.561035,0.307129,-0.322510,-0.538574,0.256592,0,0,0,0,0.450000,-0.550000,0.300000,0.000000,1772845761862.765,0.426954,-0.562830,0.307033,0.000000,0.000000,0.000000,1.000000,position_only
2026-03-07T01:09:21.876002+00:00,1772845761876.002,0.429932,-0.561035,0.307129,-0.320068,-0.547852,0.254639,0,0,0,0,0.450000,-0.550000,0.300000,0.000000,1772845761871.280,0.426925,-0.562831,0.307024,0.000000,0.000000,0.000000,1.000000,position_only
2026-03-07T01:09:21.886490+00:00,1772845761886.490,0.429932,-0.561035,0.307129,-0.328125,-0.548340,0.250977,0,0,0,0,0.450000,-0.550000,0.300000,0.000000,1772845761879.763,0.426938,-0.562802,0.306998,0.000000,0.000000,0.000000,1.000000,position_only
2026-03-07T01:09:21.895741+00:00,1772845761895.741,0.429932,-0.561035,0.307129,-0.337646,-0.525391,0.255859,0,0,0,0,0.450000,-0.550000,0.300000,0.000000,1772845761888.469,0.426915,-0.562798,0.306975,0.000000,0.000000,0.000000,1.000000,position_only
2026-03-07T01:09:21.906732+00:00,1772845761906.732,0.429932,-0.561035,0.307129,-0.337891,-0.493408,0.255127,0,0,0,0,0.450000,-0.550000,0.300000,0.000000,1772845761905.644,0.426924,-0.562766,0.306937,0.000000,0.000000,0.000000,1.000000,position_only
2026-03-07T01:09:21.916049+00:00,1772845761916.049,0.430176,-0.561035,0.307129,-0.333740,-0.464355,0.257568,0,0,0,0,0.450000,-0.550000,0.300000,0.000000,1772845761914.685,0.426897,-0.562776,0.306915,0.000000,0.000000,0.000000,1.000000,position_only
2026-03-07T01:09:21.927002+00:00,1772845761927.002,0.430176,-0.561035,0.307129,-0.322754,-0.462402,0.253662,0,0,0,0,0.450000,-0.550000,0.300000,0.000000,1772845761923.185,0.426870,-0.562767,0.306904,0.000000,0.000000,0.000000,1.000000,position_only
2026-03-07T01:09:21.935610+00:00,1772845761935.610,0.429932,-0.561035,0.307129,-0.307373,-0.443604,0.258301,0,0,0,0,0.450000,-0.550000,0.300000,0.000000,1772845761931.711,0.426862,-0.562758,0.306898,0.000000,0.000000,0.000000,1.000000,position_only
2026-03-07T01:09:21.945641+00:00,1772845761945.641,0.429932,-0.561035,0.307129,-0.289062,-0.427979,0.266846,0,0,0,0,0.450000,-0.550000,0.300000,0.000000,1772845761940.191,0.426848,-0.562770,0.306881,0.000000,0.000000,0.000000,1.000000,position_only
2026-03-07T01:09:21.955748+00:00,1772845761955.747,0.429932,-0.561035,0.307129,-0.290283,-0.443115,0.263672,0,0,0,0,0.450000,-0.550000,0.300000,0.000000,1772845761948.656,0.426840,-0.562742,0.306855,0.000000,0.000000,0.000000,1.000000,position_only
2026-03-07T01:09:21.965875+00:00,1772845761965.874,0.429932,-0.561035,0.307129,-0.288818,-0.448486,0.267822,0,0,0,0,0.450000,-0.550000,0.300000,0.000000,1772845761965.823,0.426839,-0.562733,0.306837,0.000000,0.000000,0.000000,1.000000,position_only
2026-03-07T01:09:21.976006+00:00,1772845761976.006,0.430176,-0.561035,0.307129,-0.284668,-0.449463,0.268799,0,0,0,0,0.450000,-0.550000,0.300000,0.000000,1772845761974.321,0.426812,-0.562723,0.306801,0.000000,0.000000,0.000000,1.000000,position_only
2026-03-07T01:09:21.986555+00:00,1772845761986.555,0.430176,-0.561035,0.307129,-0.287598,-0.450928,0.270508,0,0,0,0,0.450000,-0.550000,0.300000,0.000000,1772845761982.763,0.426780,-0.562722,0.306783,0.000000,0.000000,0.000000,1.000000,position_only
2026-03-07T01:09:21.995777+00:00,1772845761995.776,0.429932,-0.561035,0.307129,-0.287354,-0.447754,0.269775,0,0,0,0,0.450000,-0.550000,0.300000,0.000000,1772845761991.275,0.426745,-0.562732,0.306786,0.000000,0.000000,0.000000,1.000000,position_only
2026-03-07T01:09:22.006940+00:00,1772845762006.940,0.429932,-0.561035,0.307129,-0.301514,-0.459961,0.268066,0,0,0,0,0.450000,-0.550000,0.300000,0.000000,1772845761999.797,0.426722,-0.562700,0.306726,0.000000,0.000000,0.000000,1.000000,position_only
2026-03-07T01:09:22.015943+00:00,1772845762015.942,0.429932,-0.561035,0.307129,-0.294678,-0.456543,0.267090,0,0,0,0,0.450000,-0.550000,0.300000,0.000000,1772845762008.287,0.426695,-0.562696,0.306716,0.000000,0.000000,0.000000,1.000000,position_only
2026-03-07T01:09:22.027257+00:00,1772845762027.256,0.429932,-0.561035,0.307129,-0.278564,-0.454590,0.262207,0,0,0,0,0.450000,-0.550000,0.300000,0.000000,1772845762025.350,0.426607,-0.562693,0.306671,0.000000,0.000000,0.000000,1.000000,position_only
2026-03-07T01:09:22.037018+00:00,1772845762037.017,0.429932,-0.561035,0.307129,-0.266602,-0.450928,0.261963,0,0,0,0,0.450000,-0.550000,0.300000,0.000000,1772845762033.900,0.426565,-0.562699,0.306655,0.000000,0.000000,0.000000,1.000000,position_only
2026-03-07T01:09:22.046608+00:00,1772845762046.607,0.429932,-0.561035,0.307129,-0.259766,-0.464111,0.260010,0,0,0,0,0.450000,-0.550000,0.300000,0.000000,1772845762042.406,0.426562,-0.562695,0.306637,0.000000,0.000000,0.000000,1.000000,position_only
2026-03-07T01:09:22.056945+00:00,1772845762056.944,0.429688,-0.561035,0.307129,-0.252441,-0.467773,0.257812,0,0,0,0,0.450000,-0.550000,0.300000,0.000000,1772845762051.066,0.426562,-0.562695,0.306637,0.000000,0.000000,0.000000,1.000000,position_only
2026-03-07T01:09:22.066751+00:00,1772845762066.750,0.429688,-0.561035,0.307129,-0.253418,-0.481934,0.254639,0,0,0,0,0.450000,-0.550000,0.300000,0.000000,1772845762059.592,0.426468,-0.562689,0.306574,0.000000,0.000000,0.000000,1.000000,position_only
2026-03-07T01:09:22.077330+00:00,1772845762077.330,0.429688,-0.561035,0.307129,-0.247681,-0.484375,0.256836,0,0,0,0,0.450000,-0.550000,0.300000,0.000000,1772845762076.966,0.426421,-0.562706,0.306534,0.000000,0.000000,0.000000,1.000000,position_only
2026-03-07T01:09:22.086594+00:00,1772845762086.594,0.429688,-0.561035,0.307129,-0.243774,-0.502930,0.254883,0,0,0,0,0.450000,-0.550000,0.300000,0.000000,1772845762085.531,0.426384,-0.562707,0.306494,0.000000,0.000000,0.000000,1.000000,position_only
2026-03-07T01:09:22.096755+00:00,1772845762096.755,0.429688,-0.561035,0.306885,-0.246460,-0.528320,0.252930,0,0,0,0,0.450000,-0.550000,0.300000,0.000000,1772845762094.234,0.426342,-0.562706,0.306472,0.000000,0.000000,0.000000,1.000000,position_only
2026-03-07T01:09:22.107466+00:00,1772845762107.466,0.429688,-0.560547,0.306885,-0.244873,-0.541016,0.243652,0,0,0,0,0.450000,-0.550000,0.300000,0.000000,1772845762103.106,0.426287,-0.562711,0.306458,0.000000,0.000000,0.000000,1.000000,position_only
2026-03-07T01:09:22.117637+00:00,1772845762117.637,0.429443,-0.561035,0.306885,-0.256348,-0.561035,0.233887,0,0,0,0,0.450000,-0.550000,0.300000,0.000000,1772845762111.589,0.426282,-0.562689,0.306412,0.000000,0.000000,0.000000,1.000000,position_only
2026-03-07T01:09:22.126635+00:00,1772845762126.635,0.429443,-0.561035,0.306885,-0.259033,-0.561035,0.226807,0,0,0,0,0.450000,-0.550000,0.300000,0.000000,1772845762120.150,0.426241,-0.562704,0.306372,0.000000,0.000000,0.000000,1.000000,position_only
2026-03-07T01:09:22.137106+00:00,1772845762137.106,0.429443,-0.561035,0.306885,-0.256348,-0.563965,0.217773,0,0,0,0,0.450000,-0.550000,0.300000,0.000000,1772845762128.587,0.426217,-0.562735,0.306345,0.000000,0.000000,0.000000,1.000000,position_only
2026-03-07T01:09:22.146110+00:00,1772845762146.110,0.429443,-0.561035,0.306885,-0.239624,-0.556152,0.218384,0,0,0,0,0.450000,-0.550000,0.300000,0.000000,1772845762145.902,0.426120,-0.562740,0.306293,0.000000,0.000000,0.000000,1.000000,position_only
2026-03-07T01:09:22.157078+00:00,1772845762157.077,0.429443,-0.561035,0.306885,-0.232300,-0.575684,0.205566,0,0,0,0,0.450000,-0.550000,0.300000,0.000000,1772845762154.531,0.426062,-0.562745,0.306255,0.000000,0.000000,0.000000,1.000000,position_only
2026-03-07T01:09:22.166667+00:00,1772845762166.666,0.429443,-0.561035,0.306641,-0.224487,-0.589355,0.201050,0,0,0,0,0.450000,-0.550000,0.300000,0.000000,1772845762163.426,0.426046,-0.562752,0.306212,0.000000,0.000000,0.000000,1.000000,position_only
2026-03-07T01:09:22.176476+00:00,1772845762176.475,0.429199,-0.561035,0.306641,-0.220459,-0.609375,0.187744,0,0,0,0,0.450000,-0.550000,0.300000,0.000000,1772845762172.055,0.426005,-0.562768,0.306176,0.000000,0.000000,0.000000,1.000000,position_only
2026-03-07T01:09:22.186292+00:00,1772845762186.292,0.429199,-0.561035,0.306641,-0.224365,-0.625977,0.176880,0,0,0,0,0.450000,-0.550000,0.300000,0.000000,1772845762180.532,0.425984,-0.562781,0.306128,0.000000,0.000000,0.000000,1.000000,position_only
2026-03-07T01:09:22.197098+00:00,1772845762197.098,0.429199,-0.561035,0.306641,-0.228760,-0.638184,0.156616,0,0,0,0,0.450000,-0.550000,0.300000,0.000000,1772845762189.038,0.425978,-0.562787,0.306087,0.000000,0.000000,0.000000,1.000000,position_only
2026-03-07T01:09:22.206905+00:00,1772845762206.904,0.429199,-0.561035,0.306641,-0.238281,-0.653320,0.140259,0,0,0,0,0.450000,-0.550000,0.300000,0.000000,1772845762206.145,0.425898,-0.562874,0.305992,0.000000,0.000000,0.000000,1.000000,position_only
2026-03-07T01:09:22.217473+00:00,1772845762217.472,0.429199,-0.561035,0.306396,-0.252686,-0.659668,0.125000,0,0,0,0,0.450000,-0.550000,0.300000,0.000000,1772845762214.661,0.425836,-0.562897,0.305956,0.000000,0.000000,0.000000,1.000000,position_only
2026-03-07T01:09:22.227280+00:00,1772845762227.280,0.429199,-0.561035,0.306396,-0.260742,-0.652344,0.122437,0,0,0,0,0.450000,-0.550000,0.300000,0.000000,1772845762223.147,0.425812,-0.562937,0.305922,0.000000,0.000000,0.000000,1.000000,position_only
2026-03-07T01:09:22.237048+00:00,1772845762237.047,0.428955,-0.561035,0.306396,-0.275146,-0.656250,0.114014,0,0,0,0,0.450000,-0.550000,0.300000,0.000000,1772845762231.673,0.425815,-0.562935,0.305880,0.000000,0.000000,0.000000,1.000000,position_only
2026-03-07T01:09:22.247014+00:00,1772845762247.012,0.428955,-0.561035,0.306396,-0.274658,-0.654297,0.101624,0,0,0,0,0.450000,-0.550000,0.300000,0.000000,1772845762240.438,0.425784,-0.562972,0.305830,0.000000,0.000000,0.000000,1.000000,position_only
2026-03-07T01:09:22.256949+00:00,1772845762256.948,0.428955,-0.561035,0.306396,-0.258789,-0.651367,0.091064,0,0,0,0,0.450000,-0.550000,0.300000,0.000000,1772845762249.180,0.425757,-0.563000,0.305804,0.000000,0.000000,0.000000,1.000000,position_only
2026-03-07T01:09:22.266752+00:00,1772845762266.751,0.428955,-0.561035,0.306152,-0.246338,-0.648438,0.078674,0,0,0,0,0.450000,-0.550000,0.300000,0.000000,1772845762266.194,0.425697,-0.563064,0.305729,0.000000,0.000000,0.000000,1.000000,position_only
2026-03-07T01:09:22.276731+00:00,1772845762276.730,0.428955,-0.561035,0.306152,-0.247559,-0.663574,0.066223,0,0,0,0,0.450000,-0.550000,0.300000,0.000000,1772845762275.041,0.425685,-0.563109,0.305653,0.000000,0.000000,0.000000,1.000000,position_only
2026-03-07T01:09:22.288401+00:00,1772845762288.401,0.428955,-0.561035,0.306152,-0.259277,-0.669434,0.056091,0,0,0,0,0.450000,-0.550000,0.300000,0.000000,1772845762283.589,0.425654,-0.563145,0.305613,0.000000,0.000000,0.000000,1.000000,position_only
2026-03-07T01:09:22.297582+00:00,1772845762297.582,0.428711,-0.561035,0.306152,-0.264648,-0.657715,0.045776,0,0,0,0,0.450000,-0.550000,0.300000,0.000000,1772845762292.112,0.425629,-0.563170,0.305568,0.000000,0.000000,0.000000,1.000000,position_only
2026-03-07T01:09:22.306609+00:00,1772845762306.609,0.428711,-0.561523,0.305908,-0.279541,-0.651367,0.031281,0,0,0,0,0.450000,-0.550000,0.300000,0.000000,1772845762300.589,0.425626,-0.563210,0.305527,0.000000,0.000000,0.000000,1.000000,position_only
2026-03-07T01:09:22.317277+00:00,1772845762317.277,0.428711,-0.561523,0.305908,-0.290283,-0.635742,0.016678,0,0,0,0,0.450000,-0.550000,0.300000,0.000000,1772845762309.186,0.425591,-0.563253,0.305498,0.000000,0.000000,0.000000,1.000000,position_only
2026-03-07T01:09:22.327255+00:00,1772845762327.255,0.428711,-0.561523,0.305908,-0.301270,-0.624023,0.009499,0,0,0,0,0.450000,-0.550000,0.300000,0.000000,1772845762326.449,0.425564,-0.563303,0.305419,0.000000,0.000000,0.000000,1.000000,position_only
2026-03-07T01:09:22.336627+00:00,1772845762336.626,0.428955,-0.561523,0.305908,-0.299316,-0.603027,0.006718,19611,19476,19278,19542,0.450000,-0.550000,0.300000,0.000000,1772845762334.971,0.425557,-0.563352,0.305385,0.000000,0.000000,0.000000,1.000000,position_only
2026-03-07T01:09:22.347969+00:00,1772845762347.969,0.428955,-0.561523,0.305908,-0.297607,-0.613281,0.005569,19857,19181,19506,19332,0.450000,-0.550000,0.300000,0.000000,1772845762343.475,0.425564,-0.563376,0.305343,0.000000,0.000000,0.000000,1.000000,position_only
2026-03-07T01:09:22.358453+00:00,1772845762358.452,0.428711,-0.561523,0.305664,-0.306885,-0.632812,0.026871,19878,19108,19572,19214,0.450000,-0.550000,0.300000,0.000000,1772845762352.150,0.425561,-0.563418,0.305330,0.000000,0.000000,0.000000,1.000000,position_only
2026-03-07T01:09:22.367249+00:00,1772845762367.248,0.428711,-0.561523,0.305664,-0.306885,-0.632812,0.026871,19857,19134,19643,19137,0.450000,-0.550000,0.300000,0.000000,1772845762360.689,0.425538,-0.563464,0.305368,0.000000,0.000000,0.000000,1.000000,position_only
2026-03-07T01:09:22.377729+00:00,1772845762377.729,0.428467,-0.561523,0.305664,-0.304443,-0.621094,0.052612,19665,19186,19551,19220,0.450000,-0.550000,0.300000,0.000000,1772845762369.419,0.425528,-0.563498,0.305428,0.000000,0.000000,0.000000,1.000000,position_only
2026-03-07T01:09:22.388427+00:00,1772845762388.427,0.428711,-0.561523,0.305908,-0.312500,-0.580078,0.084717,19628,19150,19626,18998,0.450000,-0.550000,0.300000,0.000000,1772845762386.445,0.425534,-0.563534,0.305755,0.000000,0.000000,0.000000,1.000000,position_only
2026-03-07T01:09:22.398478+00:00,1772845762398.478,0.428711,-0.561523,0.306152,-0.329590,-0.517090,0.109985,19547,19109,19649,18839,0.450000,-0.550000,0.300000,0.000000,1772845762394.969,0.425516,-0.563587,0.306000,0.000000,0.000000,0.000000,1.000000,position_only
2026-03-07T01:09:22.406833+00:00,1772845762406.833,0.428711,-0.561523,0.306396,-0.334717,-0.411133,0.145020,19439,19090,19637,18722,0.450000,-0.550000,0.300000,0.000000,1772845762403.530,0.425487,-0.563638,0.306361,0.000000,0.000000,0.000000,1.000000,position_only
2026-03-07T01:09:22.418909+00:00,1772845762418.908,0.428711,-0.561523,0.306885,-0.347900,-0.284180,0.179077,19364,18986,19586,18632,0.450000,-0.550000,0.300000,0.000000,1772845762412.162,0.425406,-0.563652,0.306827,0.000000,0.000000,0.000000,1.000000,position_only
2026-03-07T01:09:22.427929+00:00,1772845762427.928,0.428467,-0.562012,0.307373,-0.349365,-0.151001,0.211670,19433,18833,19691,18296,0.450000,-0.550000,0.300000,0.000000,1772845762420.710,0.425336,-0.563680,0.307288,0.000000,0.000000,0.000000,1.000000,position_only
2026-03-07T01:09:22.438512+00:00,1772845762438.511,0.428467,-0.562012,0.308105,-0.334961,0.007919,0.259277,19233,18807,19482,18387,0.450000,-0.550000,0.300000,0.000000,1772845762437.761,0.425248,-0.563793,0.308352,0.000000,0.000000,0.000000,1.000000,position_only
2026-03-07T01:09:22.447640+00:00,1772845762447.639,0.428467,-0.562012,0.308838,-0.326416,0.141724,0.298340,19312,18657,19560,18073,0.450000,-0.550000,0.300000,0.000000,1772845762446.239,0.425161,-0.563816,0.309120,0.000000,0.000000,0.000000,1.000000,position_only
2026-03-07T01:09:22.458541+00:00,1772845762458.541,0.428467,-0.562012,0.309814,-0.314209,0.292725,0.355713,19110,18596,19355,18141,0.450000,-0.550000,0.300000,0.000000,1772845762454.778,0.425064,-0.563842,0.309850,0.000000,0.000000,0.000000,1.000000,position_only
2026-03-07T01:09:22.469835+00:00,1772845762469.834,0.428467,-0.562012,0.310791,-0.311279,0.408691,0.401855,19145,18406,19394,17914,0.450000,-0.550000,0.300000,0.000000,1772845762463.389,0.424984,-0.563846,0.310660,0.000000,0.000000,0.000000,1.000000,position_only
2026-03-07T01:09:22.480301+00:00,1772845762480.301,0.428223,-0.562012,0.311768,-0.299072,0.511719,0.448975,19023,18381,19302,17868,0.450000,-0.550000,0.300000,0.000000,1772845762472.001,0.424909,-0.563960,0.311518,0.000000,0.000000,0.000000,1.000000,position_only
2026-03-07T01:09:22.487900+00:00,1772845762487.900,0.428223,-0.562012,0.311768,-0.299072,0.511719,0.448975,19006,18401,19236,17931,0.450000,-0.550000,0.300000,0.000000,1772845762480.505,0.424785,-0.563962,0.312433,0.000000,0.000000,0.000000,1.000000,position_only
2026-03-07T01:09:22.497760+00:00,1772845762497.760,0.427979,-0.562012,0.314453,-0.286621,0.691406,0.540527,18865,18295,19084,17759,0.450000,-0.550000,0.300000,0.000000,1772845762497.587,0.424522,-0.564043,0.314484,0.000000,0.000000,0.000000,1.000000,position_only
2026-03-07T01:09:22.509953+00:00,1772845762509.952,0.427979,-0.562012,0.315918,-0.265381,0.767090,0.585449,18912,18076,19156,17555,0.450000,-0.550000,0.300000,0.000000,1772845762506.092,0.424343,-0.564045,0.315588,0.000000,0.000000,0.000000,1.000000,position_only
2026-03-07T01:09:22.522198+00:00,1772845762522.198,0.427734,-0.562012,0.317139,-0.255615,0.827148,0.633789,18833,18033,19048,17522,0.450000,-0.550000,0.300000,0.000000,1772845762514.646,0.424225,-0.564077,0.316707,0.000000,0.000000,0.000000,1.000000,position_only
2026-03-07T01:09:22.528279+00:00,1772845762528.279,0.427490,-0.562012,0.318604,-0.247437,0.872070,0.677246,18692,18028,18901,17571,0.450000,-0.550000,0.300000,0.000000,1772845762523.143,0.424004,-0.564170,0.317900,0.000000,0.000000,0.000000,1.000000,position_only
2026-03-07T01:09:22.538947+00:00,1772845762538.947,0.427246,-0.562500,0.318604,-0.240601,0.884766,0.677246,18819,17917,18988,17474,0.450000,-0.550000,0.300000,0.000000,1772845762531.656,0.423816,-0.564175,0.319185,0.000000,0.000000,0.000000,1.000000,position_only
2026-03-07T01:09:22.548796+00:00,1772845762548.794,0.427002,-0.562500,0.322021,-0.236816,0.923340,0.766113,18686,17784,18807,17419,0.450000,-0.550000,0.300000,0.000000,1772845762540.367,0.423622,-0.564276,0.320437,0.000000,0.000000,0.000000,1.000000,position_only
2026-03-07T01:09:22.558245+00:00,1772845762558.244,0.426758,-0.562500,0.322021,-0.233398,0.929199,0.766113,18778,17779,18803,17337,0.450000,-0.550000,0.300000,0.000000,1772845762557.365,0.423168,-0.564368,0.323129,0.000000,0.000000,0.000000,1.000000,position_only
2026-03-07T01:09:22.569121+00:00,1772845762569.120,0.426514,-0.562500,0.323730,-0.227539,0.916016,0.813965,18667,17688,18695,17420,0.450000,-0.550000,0.300000,0.000000,1772845762565.826,0.422917,-0.564375,0.324533,0.000000,0.000000,0.000000,1.000000,position_only
2026-03-07T01:09:22.577500+00:00,1772845762577.499,0.426025,-0.562500,0.325439,-0.216919,0.891602,0.848633,18594,17729,18629,17361,0.450000,-0.550000,0.300000,0.000000,1772845762574.735,0.422364,-0.564464,0.327408,0.000000,0.000000,0.000000,1.000000,position_only
2026-03-07T01:09:22.589448+00:00,1772845762589.448,0.425781,-0.562500,0.327393,-0.216919,0.833496,0.883301,18531,17731,18415,17433,0.450000,-0.550000,0.300000,0.000000,1772845762583.309,0.422148,-0.564546,0.328851,0.000000,0.000000,0.000000,1.000000,position_only
2026-03-07T01:09:22.599810+00:00,1772845762599.809,0.425293,-0.562500,0.329346,-0.202759,0.771973,0.914062,18612,17538,18438,17326,0.450000,-0.550000,0.300000,0.000000,1772845762591.956,0.421840,-0.564588,0.330362,0.000000,0.000000,0.000000,1.000000,position_only
2026-03-07T01:09:22.608177+00:00,1772845762608.177,0.424805,-0.562988,0.331299,-0.177612,0.688477,0.946777,18576,17467,18349,17331,0.450000,-0.550000,0.300000,0.000000,1772845762600.470,0.421542,-0.564625,0.331885,0.000000,0.000000,0.000000,1.000000,position_only
2026-03-07T01:09:22.617977+00:00,1772845762617.977,0.424316,-0.562988,0.333252,-0.169800,0.580566,0.975098,18581,17358,18283,17329,0.450000,-0.550000,0.300000,0.000000,1772845762617.594,0.420881,-0.564689,0.334923,0.000000,0.000000,0.000000,1.000000,position_only
2026-03-07T01:09:22.629180+00:00,1772845762629.180,0.423828,-0.562988,0.335205,-0.164307,0.443848,1.000000,18631,17231,18306,17204,0.450000,-0.550000,0.300000,0.000000,1772845762626.143,0.420595,-0.564768,0.336476,0.000000,0.000000,0.000000,1.000000,position_only
2026-03-07T01:09:22.638268+00:00,1772845762638.268,0.423340,-0.562988,0.337158,-0.154785,0.300781,1.030273,18532,17208,18207,17283,0.450000,-0.550000,0.300000,0.000000,1772845762634.660,0.420253,-0.564850,0.337997,0.000000,0.000000,0.000000,1.000000,position_only
2026-03-07T01:09:22.649533+00:00,1772845762649.532,0.423096,-0.562988,0.339355,-0.174194,0.146484,1.056641,18458,17220,18092,17300,0.450000,-0.550000,0.300000,0.000000,1772845762643.251,0.419892,-0.564864,0.339595,0.000000,0.000000,0.000000,1.000000,position_only
2026-03-07T01:09:22.657208+00:00,1772845762657.207,0.422363,-0.562988,0.341553,-0.191040,-0.023926,1.078125,18614,16956,18340,17001,0.450000,-0.550000,0.300000,0.000000,1772845762651.725,0.419592,-0.564941,0.341128,0.000000,0.000000,0.000000,1.000000,position_only
2026-03-07T01:09:22.669202+00:00,1772845762669.201,0.421875,-0.563477,0.343506,-0.212769,-0.157715,1.115234,18473,17041,18185,17104,0.450000,-0.550000,0.300000,0.000000,1772845762668.710,0.418829,-0.564952,0.344325,0.000000,0.000000,0.000000,1.000000,position_only
2026-03-07T01:09:22.678135+00:00,1772845762678.134,0.421387,-0.563477,0.345459,-0.238037,-0.295166,1.147461,18182,17234,17915,17348,0.450000,-0.550000,0.300000,0.000000,1772845762677.206,0.418556,-0.565023,0.345940,0.000000,0.000000,0.000000,1.000000,position_only
2026-03-07T01:09:22.687253+00:00,1772845762687.253,0.420898,-0.563477,0.347656,-0.266602,-0.415527,1.160156,18337,17014,18097,17109,0.450000,-0.550000,0.300000,0.000000,1772845762685.709,0.418161,-0.565064,0.347537,0.000000,0.000000,0.000000,1.000000,position_only
2026-03-07T01:09:22.699908+00:00,1772845762699.908,0.420166,-0.563477,0.349854,-0.303223,-0.537109,1.186523,18292,17004,18159,17026,0.450000,-0.550000,0.300000,0.000000,1772845762694.204,0.417758,-0.565098,0.349180,0.000000,0.000000,0.000000,1.000000,position_only
2026-03-07T01:09:22.709031+00:00,1772845762709.031,0.419922,-0.563477,0.351807,-0.336670,-0.619629,1.215820,18324,16964,18106,17012,0.450000,-0.550000,0.300000,0.000000,1772845762702.884,0.417401,-0.565183,0.350702,0.000000,0.000000,0.000000,1.000000,position_only
2026-03-07T01:09:22.718931+00:00,1772845762718.931,0.419434,-0.563477,0.353760,-0.361572,-0.699219,1.244141,18225,17002,18130,16993,0.450000,-0.550000,0.300000,0.000000,1772845762711.383,0.417067,-0.565189,0.352351,0.000000,0.000000,0.000000,1.000000,position_only
2026-03-07T01:09:22.727995+00:00,1772845762727.995,0.418945,-0.563477,0.355713,-0.388672,-0.754883,1.276367,18168,17078,18075,16975,0.450000,-0.550000,0.300000,0.000000,1772845762719.880,0.416714,-0.565364,0.353853,0.000000,0.000000,0.000000,1.000000,position_only
2026-03-07T01:09:22.738576+00:00,1772845762738.576,0.418457,-0.563965,0.357666,-0.411377,-0.780273,1.307617,18109,17135,18123,16897,0.450000,-0.550000,0.300000,0.000000,1772845762737.177,0.415974,-0.565456,0.356977,0.000000,0.000000,0.000000,1.000000,position_only
2026-03-07T01:09:22.748492+00:00,1772845762748.490,0.417969,-0.563965,0.359863,-0.420410,-0.791504,1.342773,18145,17042,18077,16964,0.450000,-0.550000,0.300000,0.000000,1772845762745.800,0.415639,-0.565568,0.358599,0.000000,0.000000,0.000000,1.000000,position_only
2026-03-07T01:09:22.758796+00:00,1772845762758.795,0.417480,-0.563965,0.361816,-0.432617,-0.824219,1.368164,18162,17063,18104,16861,0.450000,-0.550000,0.300000,0.000000,1772845762754.434,0.415335,-0.565552,0.360090,0.000000,0.000000,0.000000,1.000000,position_only
2026-03-07T01:09:22.769902+00:00,1772845762769.900,0.417236,-0.563965,0.361572,-0.432617,-0.824219,1.368164,18164,17074,18182,16793,0.450000,-0.550000,0.300000,0.000000,1772845762763.118,0.414946,-0.565613,0.361675,0.000000,0.000000,0.000000,1.000000,position_only
2026-03-07T01:09:22.779670+00:00,1772845762779.669,0.416504,-0.563965,0.365479,-0.417480,-0.804199,1.434570,17988,17249,17988,16930,0.450000,-0.550000,0.300000,0.000000,1772845762771.707,0.414627,-0.565686,0.363209,0.000000,0.000000,0.000000,1.000000,position_only
2026-03-07T01:09:22.789172+00:00,1772845762789.170,0.416260,-0.563965,0.365479,-0.417480,-0.804199,1.434570,17980,17252,17982,16949,0.450000,-0.550000,0.300000,0.000000,1772845762788.706,0.413919,-0.565809,0.366275,0.000000,0.000000,0.000000,1.000000,position_only
2026-03-07T01:09:22.798962+00:00,1772845762798.962,0.416016,-0.564453,0.367432,-0.404053,-0.786133,1.455078,18262,17021,18259,16611,0.450000,-0.550000,0.300000,0.000000,1772845762797.322,0.413554,-0.565805,0.367798,0.000000,0.000000,0.000000,1.000000,position_only
2026-03-07T01:09:22.807364+00:00,1772845762807.364,0.415527,-0.564453,0.369141,-0.387695,-0.767090,1.485352,18218,17035,18230,16657,0.450000,-0.550000,0.300000,0.000000,1772845762806.009,0.413263,-0.565891,0.369298,0.000000,0.000000,0.000000,1.000000,position_only
2026-03-07T01:09:22.819502+00:00,1772845762819.502,0.415283,-0.564453,0.370850,-0.364258,-0.736328,1.528320,18180,17107,18138,16691,0.450000,-0.550000,0.300000,0.000000,1772845762814.590,0.412855,-0.565870,0.370819,0.000000,0.000000,0.000000,1.000000,position_only
2026-03-07T01:09:22.829227+00:00,1772845762829.227,0.414551,-0.564453,0.372559,-0.340820,-0.712891,1.572266,18113,17189,18033,16773,0.450000,-0.550000,0.300000,0.000000,1772845762823.103,0.412559,-0.565928,0.372274,0.000000,0.000000,0.000000,1.000000,position_only
2026-03-07T01:09:22.839758+00:00,1772845762839.757,0.414307,-0.564453,0.374512,-0.309082,-0.701172,1.601562,18169,17090,18130,16700,0.450000,-0.550000,0.300000,0.000000,1772845762831.589,0.412266,-0.565956,0.373733,0.000000,0.000000,0.000000,1.000000,position_only
2026-03-07T01:09:22.848211+00:00,1772845762848.211,0.413818,-0.564453,0.376221,-0.281006,-0.701660,1.628906,18266,16990,18203,16654,0.450000,-0.550000,0.300000,0.000000,1772845762840.265,0.411928,-0.566028,0.375185,0.000000,0.000000,0.000000,1.000000,position_only
2026-03-07T01:09:22.859211+00:00,1772845762859.210,0.413574,-0.564453,0.377930,-0.265137,-0.697754,1.661133,18133,17140,18012,16845,0.450000,-0.550000,0.300000,0.000000,1772845762857.541,0.411316,-0.566163,0.377998,0.000000,0.000000,0.000000,1.000000,position_only
2026-03-07T01:09:22.869077+00:00,1772845762869.076,0.413086,-0.564453,0.379639,-0.254639,-0.709473,1.691406,18211,17051,18092,16772,0.450000,-0.550000,0.300000,0.000000,1772845762866.059,0.411045,-0.566193,0.379394,0.000000,0.000000,0.000000,1.000000,position_only
2026-03-07T01:09:22.879613+00:00,1772845762879.612,0.412842,-0.564453,0.381104,-0.244507,-0.724609,1.717773,18192,17029,18025,16867,0.450000,-0.550000,0.300000,0.000000,1772845762874.651,0.410439,-0.566289,0.382180,0.000000,0.000000,0.000000,1.000000,position_only
2026-03-07T01:09:22.889302+00:00,1772845762889.301,0.412354,-0.564453,0.383057,-0.246826,-0.770996,1.742188,18064,17105,17921,16981,0.450000,-0.550000,0.300000,0.000000,1772845762883.274,0.410158,-0.566303,0.383520,0.000000,0.000000,0.000000,1.000000,position_only
2026-03-07T01:09:22.899931+00:00,1772845762899.931,0.411865,-0.564941,0.384766,-0.255615,-0.811523,1.758789,18324,16830,18159,16710,0.450000,-0.550000,0.300000,0.000000,1772845762891.795,0.409870,-0.566365,0.384924,0.000000,0.000000,0.000000,1.000000,position_only
2026-03-07T01:09:22.908974+00:00,1772845762908.973,0.411621,-0.564941,0.386475,-0.260498,-0.850586,1.792969,18097,16976,17958,16959,0.450000,-0.550000,0.300000,0.000000,1772845762900.529,0.409628,-0.566366,0.386247,0.000000,0.000000,0.000000,1.000000,position_only
2026-03-07T01:09:22.918835+00:00,1772845762918.835,0.411377,-0.564941,0.388184,-0.286133,-0.907715,1.815430,18127,16955,17964,16953,0.450000,-0.550000,0.300000,0.000000,1772845762917.650,0.409117,-0.566491,0.388881,0.000000,0.000000,0.000000,1.000000,position_only
2026-03-07T01:09:22.929556+00:00,1772845762929.556,0.410889,-0.564941,0.389648,-0.312744,-0.962891,1.832031,18145,16932,17959,16955,0.450000,-0.550000,0.300000,0.000000,1772845762926.213,0.408814,-0.566489,0.390164,0.000000,0.000000,0.000000,1.000000,position_only
2026-03-07T01:09:22.941573+00:00,1772845762941.573,0.410645,-0.564941,0.391602,-0.343018,-1.024414,1.849609,18076,16950,17936,16987,0.450000,-0.550000,0.300000,0.000000,1772845762934.708,0.408608,-0.566486,0.391480,0.000000,0.000000,0.000000,1.000000,position_only
2026-03-07T01:09:22.949154+00:00,1772845762949.154,0.410400,-0.564941,0.393066,-0.375000,-1.074219,1.866211,18097,16939,17948,16920,0.450000,-0.550000,0.300000,0.000000,1772845762943.204,0.408608,-0.566486,0.391480,0.000000,0.000000,0.000000,1.000000,position_only
2026-03-07T01:09:22.960287+00:00,1772845762960.287,0.409912,-0.564941,0.394531,-0.400879,-1.118164,1.889648,18192,16794,18014,16901,0.450000,-0.550000,0.300000,0.000000,1772845762951.890,0.408127,-0.566531,0.393958,0.000000,0.000000,0.000000,1.000000,position_only
2026-03-07T01:09:22.968680+00:00,1772845762968.679,0.409668,-0.564941,0.395996,-0.434326,-1.168945,1.911133,18207,16819,18114,16797,0.450000,-0.550000,0.300000,0.000000,1772845762968.530,0.407703,-0.566598,0.396444,0.000000,0.000000,0.000000,1.000000,position_only
2026-03-07T01:09:22.980093+00:00,1772845762980.092,0.409424,-0.565430,0.397461,-0.459229,-1.196289,1.937500,18071,16924,17933,16991,0.450000,-0.550000,0.300000,0.000000,1772845762977.203,0.407461,-0.566612,0.397666,0.000000,0.000000,0.000000,1.000000,position_only
2026-03-07T01:09:22.989413+00:00,1772845762989.413,0.409180,-0.565430,0.399170,-0.488281,-1.231445,1.952148,17982,17050,17849,17030,0.450000,-0.550000,0.300000,0.000000,1772845762985.710,0.407325,-0.566623,0.398871,0.000000,0.000000,0.000000,1.000000,position_only
2026-03-07T01:09:23.000760+00:00,1772845763000.760,0.408936,-0.565430,0.400635,-0.500488,-1.244141,1.968750,18203,16858,18100,16762,0.450000,-0.550000,0.300000,0.000000,1772845762994.245,0.407059,-0.566656,0.400046,0.000000,0.000000,0.000000,1.000000,position_only
2026-03-07T01:09:23.007751+00:00,1772845763007.751,0.408691,-0.565430,0.402100,-0.505371,-1.249023,1.999023,18038,17019,17939,16927,0.450000,-0.550000,0.300000,0.000000,1772845763002.766,0.406898,-0.566741,0.401206,0.000000,0.000000,0.000000,1.000000,position_only
2026-03-07T01:09:23.019124+00:00,1772845763019.124,0.408447,-0.565430,0.403564,-0.503906,-1.253906,2.009766,17934,17104,17873,16959,0.450000,-0.550000,0.300000,0.000000,1772845763011.425,0.406766,-0.566680,0.402352,0.000000,0.000000,0.000000,1.000000,position_only
2026-03-07T01:09:23.029219+00:00,1772845763029.218,0.408447,-0.565430,0.403564,-0.503906,-1.253906,2.009766,18055,16995,17965,16857,0.450000,-0.550000,0.300000,0.000000,1772845763028.422,0.406389,-0.566794,0.404615,0.000000,0.000000,0.000000,1.000000,position_only
2026-03-07T01:09:23.039030+00:00,1772845763039.030,0.408203,-0.565430,0.405029,-0.508789,-1.242188,2.029297,18076,16996,17989,16787,0.450000,-0.550000,0.300000,0.000000,1772845763036.948,0.406263,-0.566762,0.405782,0.000000,0.000000,0.000000,1.000000,position_only
2026-03-07T01:09:23.048279+00:00,1772845763048.279,0.407959,-0.565430,0.406494,-0.503418,-1.231445,2.048828,18125,16979,18076,16662,0.450000,-0.550000,0.300000,0.000000,1772845763045.649,0.406054,-0.566730,0.406894,0.000000,0.000000,0.000000,1.000000,position_only
2026-03-07T01:09:23.061336+00:00,1772845763061.335,0.407715,-0.565430,0.407959,-0.479980,-1.199219,2.078125,18044,17094,17945,16756,0.450000,-0.550000,0.300000,0.000000,1772845763054.255,0.405942,-0.566766,0.407922,0.000000,0.000000,0.000000,1.000000,position_only
2026-03-07T01:09:23.070534+00:00,1772845763070.533,0.407715,-0.565430,0.409180,-0.452637,-1.165039,2.101562,17961,17119,17864,16899,0.450000,-0.550000,0.300000,0.000000,1772845763062.772,0.405796,-0.566752,0.409039,0.000000,0.000000,0.000000,1.000000,position_only
2026-03-07T01:09:23.078943+00:00,1772845763078.943,0.407471,-0.565430,0.410645,-0.426270,-1.136719,2.119141,18133,17013,18100,16616,0.450000,-0.550000,0.300000,0.000000,1772845763071.298,0.405669,-0.566706,0.410065,0.000000,0.000000,0.000000,1.000000,position_only
2026-03-07T01:09:23.089829+00:00,1772845763089.829,0.407471,-0.565430,0.411865,-0.405762,-1.104492,2.142578,18033,17125,17988,16728,0.450000,-0.550000,0.300000,0.000000,1772845763088.775,0.405437,-0.566761,0.412148,0.000000,0.000000,0.000000,1.000000,position_only
2026-03-07T01:09:23.098929+00:00,1772845763098.929,0.407227,-0.565430,0.413086,-0.376709,-1.052734,2.164062,17946,17210,17843,16885,0.450000,-0.550000,0.300000,0.000000,1772845763097.278,0.405414,-0.566740,0.413117,0.000000,0.000000,0.000000,1.000000,position_only
2026-03-07T01:09:23.109129+00:00,1772845763109.128,0.407227,-0.565430,0.414307,-0.348389,-1.013672,2.179688,17968,17178,17900,16863,0.450000,-0.550000,0.300000,0.000000,1772845763105.774,0.405256,-0.566743,0.414106,0.000000,0.000000,0.000000,1.000000,position_only
2026-03-07T01:09:23.119061+00:00,1772845763119.060,0.407227,-0.565430,0.415527,-0.328857,-0.994141,2.189453,18034,17118,17964,16804,0.450000,-0.550000,0.300000,0.000000,1772845763114.472,0.405119,-0.566755,0.415112,0.000000,0.000000,0.000000,1.000000,position_only
2026-03-07T01:09:23.129570+00:00,1772845763129.570,0.406982,-0.565430,0.416748,-0.312256,-0.970215,2.208984,18029,17165,17886,16837,0.450000,-0.550000,0.300000,0.000000,1772845763122.999,0.405062,-0.566737,0.415990,0.000000,0.000000,0.000000,1.000000,position_only
2026-03-07T01:09:23.140029+00:00,1772845763140.029,0.406982,-0.565430,0.417725,-0.285889,-0.947754,2.224609,18074,17109,17957,16803,0.450000,-0.550000,0.300000,0.000000,1772845763131.505,0.404959,-0.566726,0.416945,0.000000,0.000000,0.000000,1.000000,position_only
2026-03-07T01:09:23.149431+00:00,1772845763149.431,0.406738,-0.565430,0.418945,-0.266113,-0.927246,2.244141,18166,17048,18042,16727,0.450000,-0.550000,0.300000,0.000000,1772845763148.530,0.404778,-0.566693,0.418755,0.000000,0.000000,0.000000,1.000000,position_only
2026-03-07T01:09:23.158840+00:00,1772845763158.839,0.406738,-0.565430,0.420166,-0.244873,-0.910156,2.265625,18164,17086,17959,16782,0.450000,-0.550000,0.300000,0.000000,1772845763157.311,0.404777,-0.566718,0.419658,0.000000,0.000000,0.000000,1.000000,position_only
2026-03-07T01:09:23.171933+00:00,1772845763171.932,0.406738,-0.565430,0.421143,-0.223022,-0.910156,2.283203,18164,17043,17989,16787,0.450000,-0.550000,0.300000,0.000000,1772845763165.960,0.404657,-0.566715,0.420567,0.000000,0.000000,0.000000,1.000000,position_only
2026-03-07T01:09:23.181297+00:00,1772845763181.296,0.406738,-0.565430,0.422363,-0.209839,-0.909668,2.300781,18175,17030,17980,16787,0.450000,-0.550000,0.300000,0.000000,1772845763174.507,0.404600,-0.566695,0.421405,0.000000,0.000000,0.000000,1.000000,position_only
2026-03-07T01:09:23.188570+00:00,1772845763188.570,0.406738,-0.564941,0.423340,-0.196411,-0.910156,2.320312,18173,17065,17964,16771,0.450000,-0.550000,0.300000,0.000000,1772845763183.188,0.404489,-0.566715,0.423135,0.000000,0.000000,0.000000,1.000000,position_only
2026-03-07T01:09:23.198777+00:00,1772845763198.776,0.406494,-0.565430,0.424316,-0.175659,-0.910156,2.345703,18096,17099,17855,16940,0.450000,-0.550000,0.300000,0.000000,1772845763191.828,0.404480,-0.566736,0.423932,0.000000,0.000000,0.000000,1.000000,position_only
2026-03-07T01:09:23.209228+00:00,1772845763209.227,0.406494,-0.565430,0.425537,-0.168457,-0.926758,2.351562,18115,17125,17856,16903,0.450000,-0.550000,0.300000,0.000000,1772845763200.330,0.404533,-0.566736,0.424760,0.000000,0.000000,0.000000,1.000000,position_only
2026-03-07T01:09:23.219755+00:00,1772845763219.754,0.406738,-0.564941,0.426514,-0.156982,-0.941895,2.363281,18247,16972,18042,16756,0.450000,-0.550000,0.300000,0.000000,1772845763217.862,0.404410,-0.566753,0.426385,0.000000,0.000000,0.000000,1.000000,position_only
2026-03-07T01:09:23.229503+00:00,1772845763229.502,0.406738,-0.564941,0.427490,-0.156128,-0.960938,2.378906,18156,17058,17954,16863,0.450000,-0.550000,0.300000,0.000000,1772845763226.422,0.404427,-0.566758,0.427127,0.000000,0.000000,0.000000,1.000000,position_only
2026-03-07T01:09:23.240759+00:00,1772845763240.759,0.406494,-0.565430,0.427490,-0.156128,-0.960938,2.378906,18059,17152,17912,16914,0.450000,-0.550000,0.300000,0.000000,1772845763235.188,0.404362,-0.566775,0.427941,0.000000,0.000000,0.000000,1.000000,position_only
2026-03-07T01:09:23.250975+00:00,1772845763250.973,0.406494,-0.565430,0.428467,-0.157593,-0.963379,2.394531,18156,17033,18061,16794,0.450000,-0.550000,0.300000,0.000000,1772845763243.778,0.404412,-0.566780,0.428671,0.000000,0.000000,0.000000,1.000000,position_only
2026-03-07T01:09:23.259073+00:00,1772845763259.072,0.406494,-0.565430,0.429443,-0.164062,-0.953613,2.406250,18129,17061,18023,16829,0.450000,-0.550000,0.300000,0.000000,1772845763252.279,0.404391,-0.566727,0.429417,0.000000,0.000000,0.000000,1.000000,position_only
2026-03-07T01:09:23.268556+00:00,1772845763268.555,0.406494,-0.565430,0.430420,-0.174194,-0.933594,2.429688,18150,17032,18070,16777,0.450000,-0.550000,0.300000,0.000000,1772845763260.770,0.404422,-0.566741,0.430155,0.000000,0.000000,0.000000,1.000000,position_only
2026-03-07T01:09:23.278959+00:00,1772845763278.958,0.406494,-0.565430,0.431396,-0.181274,-0.913086,2.447266,18003,17188,17992,16853,0.450000,-0.550000,0.300000,0.000000,1772845763278.060,0.404461,-0.566810,0.431566,0.000000,0.000000,0.000000,1.000000,position_only
2026-03-07T01:09:23.291056+00:00,1772845763291.055,0.406494,-0.565430,0.432129,-0.198242,-0.883789,2.462891,18174,17017,18179,16692,0.450000,-0.550000,0.300000,0.000000,1772845763286.591,0.404463,-0.566833,0.432240,0.000000,0.000000,0.000000,1.000000,position_only
2026-03-07T01:09:23.299519+00:00,1772845763299.519,0.406738,-0.565430,0.433105,-0.218628,-0.847656,2.482422,18189,17019,18252,16613,0.450000,-0.550000,0.300000,0.000000,1772845763295.151,0.404460,-0.566867,0.432961,0.000000,0.000000,0.000000,1.000000,position_only
2026-03-07T01:09:23.314650+00:00,1772845763314.650,0.406738,-0.565430,0.433838,-0.226929,-0.799805,2.507812,18153,17046,18246,16606,0.450000,-0.550000,0.300000,0.000000,1772845763312.365,0.404519,-0.566806,0.434261,0.000000,0.000000,0.000000,1.000000,position_only
2026-03-07T01:09:23.320594+00:00,1772845763320.594,0.406738,-0.565430,0.434814,-0.234985,-0.723633,2.542969,18127,17032,18206,16666,0.450000,-0.550000,0.300000,0.000000,1772845763312.365,0.404519,-0.566806,0.434261,0.000000,0.000000,0.000000,1.000000,position_only
2026-03-07T01:09:23.329950+00:00,1772845763329.950,0.406738,-0.565430,0.435547,-0.251953,-0.671875,2.568359,18079,17113,18182,16667,0.450000,-0.550000,0.300000,0.000000,1772845763329.415,0.404460,-0.566898,0.435526,0.000000,0.000000,0.000000,1.000000,position_only
2026-03-07T01:09:23.339435+00:00,1772845763339.435,0.406738,-0.565430,0.436279,-0.263184,-0.612305,2.589844,18184,17017,18332,16531,0.450000,-0.550000,0.300000,0.000000,1772845763337.886,0.404519,-0.566865,0.436122,0.000000,0.000000,0.000000,1.000000,position_only
2026-03-07T01:09:23.350824+00:00,1772845763350.824,0.406738,-0.565430,0.437012,-0.273193,-0.554688,2.615234,18220,16986,18439,16435,0.450000,-0.550000,0.300000,0.000000,1772845763346.429,0.404461,-0.566887,0.436709,0.000000,0.000000,0.000000,1.000000,position_only
2026-03-07T01:09:23.360392+00:00,1772845763360.391,0.406982,-0.565430,0.437988,-0.287842,-0.464111,2.656250,18040,17152,18235,16649,0.450000,-0.550000,0.300000,0.000000,1772845763355.169,0.404446,-0.566937,0.437312,0.000000,0.000000,0.000000,1.000000,position_only
2026-03-07T01:09:23.370559+00:00,1772845763370.559,0.406982,-0.565430,0.438721,-0.301514,-0.396973,2.679688,18041,17157,18271,16621,0.450000,-0.550000,0.300000,0.000000,1772845763363.674,0.404470,-0.566914,0.437901,0.000000,0.000000,0.000000,1.000000,position_only
2026-03-07T01:09:23.379829+00:00,1772845763379.828,0.406982,-0.565430,0.439453,-0.314697,-0.328369,2.703125,18127,17106,18299,16586,0.450000,-0.550000,0.300000,0.000000,1772845763372.169,0.404483,-0.566939,0.438452,0.000000,0.000000,0.000000,1.000000,position_only
2026-03-07T01:09:23.389348+00:00,1772845763389.347,0.407227,-0.565430,0.440186,-0.323730,-0.269287,2.728516,18156,17120,18297,16553,0.450000,-0.550000,0.300000,0.000000,1772845763380.706,0.404469,-0.566982,0.439011,0.000000,0.000000,0.000000,1.000000,position_only
2026-03-07T01:09:23.400737+00:00,1772845763400.737,0.406982,-0.565430,0.440674,-0.314697,-0.207397,2.751953,18043,17266,18138,16713,0.450000,-0.550000,0.300000,0.000000,1772845763397.995,0.404557,-0.567028,0.440085,0.000000,0.000000,0.000000,1.000000,position_only
2026-03-07T01:09:23.410587+00:00,1772845763410.587,0.407227,-0.565430,0.441406,-0.311768,-0.161499,2.771484,18222,17088,18315,16551,0.450000,-0.550000,0.300000,0.000000,1772845763406.502,0.404520,-0.567096,0.440610,0.000000,0.000000,0.000000,1.000000,position_only
2026-03-07T01:09:23.423608+00:00,1772845763423.608,0.406982,-0.565430,0.441895,-0.305664,-0.125244,2.798828,18324,17037,18396,16462,0.450000,-0.550000,0.300000,0.000000,1772845763415.015,0.404528,-0.567135,0.441101,0.000000,0.000000,0.000000,1.000000,position_only
2026-03-07T01:09:23.429771+00:00,1772845763429.771,0.406982,-0.565430,0.442627,-0.291748,-0.093018,2.832031,18228,17127,18325,16530,0.450000,-0.550000,0.300000,0.000000,1772845763423.934,0.404617,-0.567132,0.441614,0.000000,0.000000,0.000000,1.000000,position_only
2026-03-07T01:09:23.440530+00:00,1772845763440.529,0.406982,-0.565430,0.442627,-0.291748,-0.093018,2.832031,18075,17314,18110,16727,0.450000,-0.550000,0.300000,0.000000,1772845763432.429,0.404530,-0.567139,0.442088,0.000000,0.000000,0.000000,1.000000,position_only
2026-03-07T01:09:23.449859+00:00,1772845763449.859,0.406982,-0.565430,0.443848,-0.257080,-0.059784,2.869141,18307,17138,18265,16546,0.450000,-0.550000,0.300000,0.000000,1772845763449.517,0.404578,-0.567160,0.443076,0.000000,0.000000,0.000000,1.000000,position_only
2026-03-07T01:09:23.459381+00:00,1772845763459.380,0.407227,-0.565430,0.444336,-0.239014,-0.067078,2.892578,18456,17007,18342,16477,0.450000,-0.550000,0.300000,0.000000,1772845763458.140,0.404482,-0.567295,0.443937,0.000000,0.000000,0.000000,1.000000,position_only
2026-03-07T01:09:23.470535+00:00,1772845763470.534,0.407227,-0.565430,0.445068,-0.218140,-0.094055,2.917969,18346,17072,18274,16598,0.450000,-0.550000,0.300000,0.000000,1772845763466.719,0.404500,-0.567268,0.444367,0.000000,0.000000,0.000000,1.000000,position_only
2026-03-07T01:09:23.480426+00:00,1772845763480.425,0.406982,-0.565918,0.445557,-0.213989,-0.134155,2.933594,18156,17265,18037,16844,0.450000,-0.550000,0.300000,0.000000,1772845763475.273,0.404472,-0.567313,0.444777,0.000000,0.000000,0.000000,1.000000,position_only
